{"type": "Feature", "id": "node_37073137", "geometry": {"type": "Point", "coordinates": [18.1265854, 59.1422334]}, "properties": {"name": "Jordbro", "category": "public_transport", "subtype": "pt_stop", "source_type": "node", "fetched_at_utc": "2026-03-13T14:25:28.041240+00:00", "tags": {"name": "Jordbro", "network": "SL", "public_transport": "stop_position", "railway": "stop", "railway:ref": "Jbo", "route_ref": "J43", "sl_stop_id": "9729", "train": "yes"}}}
{"type": "Feature", "id": "node_37073149", "geometry": {"type": "Point", "coordinates": [18.1033886, 59.1230368]}, "properties": {"name": "Västerhaninge", "category": "public_transport", "subtype": "pt_stop", "source_type": "node", "fetched_at_utc": "2026-03-13T14:25:28.041240+00:00", "tags": {"name": "Västerhaninge", "network": "SL", "public_transport": "stop_position", "railway": "stop", "railway:ref": "Vhe", "route_ref": "J42X;J43;J43X", "sl_stop_id": "9728", "train": "yes"}}}
{"type": "Feature", "id": "node_254435534", "geometry": {"type": "Point", "coordinates": [18.1341847, 59.1664112]}, "properties": {"name": "Handen", "category": "public_transport", "subtype": "pt_stop", "source_type": "node", "fetched_at_utc": "2026-03-13T14:25:28.041240+00:00", "tags": {"name": "Handen", "network": "SL", "old_name": "Österhaninge;Haninge Centrum", "public_transport": "stop_position", "railway": "stop", "railway:ref": "Hnd", "route_ref": "J42X;J43;J43X", "sl_stop_id": "9730", "train": "yes"}}}
{"type": "Feature", "id": "node_254436952", "geometry": {"type": "Point", "coordinates": [18.0652836, 59.1087413]}, "properties": {"name": "Krigslida", "category": "public_transport", "subtype": "pt_stop", "source_type": "node", "fetched_at_utc": "2026-03-13T14:25:28.041240+00:00", "tags": {"name": "Krigslida", "network": "SL", "public_transport": "stop_position", "railway": "stop", "railway:ref": "Kda", "route_ref": "J43", "sl_stop_id": "9727", "train": "yes"}}}
{"type": "Feature", "id": "node_288315432", "geometry": {"type": "Point", "coordinates": [18.1613733, 59.1762594]}, "properties": {"name": "Brandbergens industriområde", "category": "public_transport", "subtype": "bus_stop", "source_type": "node", "fetched_at_utc": "2026-03-13T14:25:28.041240+00:00", "tags": {"bench": "no", "bin": "yes", "highway": "bus_stop", "mapillary": "521123039269763", "name": "Brandbergens industriområde", "network": "SL", "route_ref": "809;809C", "shelter": "no"}}}
{"type": "Feature", "id": "node_288315438", "geometry": {"type": "Point", "coordinates": [18.1624511, 59.1774812]}, "properties": {"name": "Brandbergens industriområde", "category": "public_transport", "subtype": "bus_stop", "source_type": "node", "fetched_at_utc": "2026-03-13T14:25:28.041240+00:00", "tags": {"bench": "yes", "bin": "yes", "highway": "bus_stop", "lit": "yes", "mapillary": "513232143126661", "name": "Brandbergens industriområde", "network": "SL", "shelter": "yes", "tactile_paving": "yes"}}}
{"type": "Feature", "id": "node_321697103", "geometry": {"type": "Point", "coordinates": [18.1540589, 59.1716977]}, "properties": {"name": "Passagen", "category": "food", "subtype": "cafe", "source_type": "node", "fetched_at_utc": "2026-03-13T14:25:28.041240+00:00", "tags": {"amenity": "cafe", "created_by": "Potlatch 0.10f", "name": "Passagen"}}}
{"type": "Feature", "id": "node_323062128", "geometry": {"type": "Point", "coordinates": [18.1465973, 59.1834916]}, "properties": {"name": "Vegabaren", "category": "food", "subtype": "fast_food", "source_type": "node", "fetched_at_utc": "2026-03-13T14:25:28.041240+00:00", "tags": {"addr:city": "Haninge", "addr:country": "SE", "addr:housenumber": "8", "addr:postcode": "13647", "addr:street": "Nynäsvägen", "amenity": "fast_food", "cuisine": "burger", "drive_through": "no", "name": "Vegabaren", "opening_hours": "Su-Th 09:00-03:00, Fr-Sa 09:00-05:00", "payment:credit_cards": "yes", "payment:debit_cards": "yes", "website": "www.vegabar.se", "wheelchair": "yes", "wikidata": "Q10713621", "wikipedia": "sv:Vegabaren"}}}
{"type": "Feature", "id": "node_325066373", "geometry": {"type": "Point", "coordinates": [18.2377287, 59.1678327]}, "properties": {"name": "The Café in Tyresta By", "category": "food", "subtype": "cafe", "source_type": "node", "fetched_at_utc": "2026-03-13T14:25:28.041240+00:00", "tags": {"addr:city": "Vendelsö", "addr:place": "Tyresta by", "addr:postcode": "136 59", "amenity": "cafe", "email": "cafeetityrestaby@gmail.com", "name": "The Café in Tyresta By", "name:en": "The Café in Tyresta By", "name:sv": "Caféet i Tyresta By", "opening_hours": "Tu-Fr 09:00-16:00; Sa, Su 09:00-17:00", "outdoor_seating": "yes", "phone": "073-077 86 36", "website": "https://www.cafeetityrestaby.se/"}}}
{"type": "Feature", "id": "node_330602432", "geometry": {"type": "Point", "coordinates": [18.1058603, 59.1229579]}, "properties": {"name": "TM Bagarstuga", "category": "food", "subtype": "cafe", "source_type": "node", "fetched_at_utc": "2026-03-13T14:25:28.041240+00:00", "tags": {"amenity": "cafe", "name": "TM Bagarstuga"}}}
{"type": "Feature", "id": "node_415592508", "geometry": {"type": "Point", "coordinates": [18.1016863, 59.1222504]}, "properties": {"name": "Daisy's", "category": "food", "subtype": "fast_food", "source_type": "node", "fetched_at_utc": "2026-03-13T14:25:28.041240+00:00", "tags": {"amenity": "fast_food", "brand": "Daisy's", "brand:wikidata": "Q10466019", "cuisine": "burger", "name": "Daisy's", "takeaway": "yes"}}}
{"type": "Feature", "id": "node_417750761", "geometry": {"type": "Point", "coordinates": [18.1055161, 59.1229827]}, "properties": {"name": "Centrumgrillen", "category": "food", "subtype": "fast_food", "source_type": "node", "fetched_at_utc": "2026-03-13T14:25:28.041240+00:00", "tags": {"amenity": "fast_food", "name": "Centrumgrillen", "opening_hours": "Mo-Fr 10:00-20:00; Sa 10:00-19:00; Su 11:00-19:00", "payment:credit_cards": "yes", "payment:debit_cards": "yes", "wheelchair": "yes"}}}
{"type": "Feature", "id": "node_417751263", "geometry": {"type": "Point", "coordinates": [18.1432301, 59.1784559]}, "properties": {"name": "Sibylla", "category": "food", "subtype": "fast_food", "source_type": "node", "fetched_at_utc": "2026-03-13T14:25:28.041240+00:00", "tags": {"amenity": "fast_food", "brand": "Sibylla", "brand:wikidata": "Q488643", "brand:wikipedia": "en:Sibylla (fast food)", "check_date:opening_hours": "2025-07-12", "cuisine": "burger", "name": "Sibylla", "opening_hours": "Mo-Su 10:00-22:00", "takeaway": "yes", "wheelchair": "yes"}}}
{"type": "Feature", "id": "node_449383246", "geometry": {"type": "Point", "coordinates": [18.1449211, 59.1703215]}, "properties": {"name": "Malmens konditori", "category": "food", "subtype": "cafe", "source_type": "node", "fetched_at_utc": "2026-03-13T14:25:28.041240+00:00", "tags": {"amenity": "cafe", "name": "Malmens konditori"}}}
{"type": "Feature", "id": "node_449383280", "geometry": {"type": "Point", "coordinates": [18.1446843, 59.1701763]}, "properties": {"name": "Texas Longhoorn", "category": "food", "subtype": "restaurant", "source_type": "node", "fetched_at_utc": "2026-03-13T14:25:28.041240+00:00", "tags": {"amenity": "restaurant", "cuisine": "steak_house", "name": "Texas Longhoorn"}}}
{"type": "Feature", "id": "node_449383306", "geometry": {"type": "Point", "coordinates": [18.1443839, 59.1701675]}, "properties": {"name": "Thai Fire Food", "category": "food", "subtype": "restaurant", "source_type": "node", "fetched_at_utc": "2026-03-13T14:25:28.041240+00:00", "tags": {"amenity": "restaurant", "name": "Thai Fire Food"}}}
{"type": "Feature", "id": "node_449384663", "geometry": {"type": "Point", "coordinates": [18.1974379, 59.1464861]}, "properties": {"name": "Café Garden", "category": "food", "subtype": "cafe", "source_type": "node", "fetched_at_utc": "2026-03-13T14:25:28.041240+00:00", "tags": {"amenity": "cafe", "name": "Café Garden"}}}
{"type": "Feature", "id": "node_617598170", "geometry": {"type": "Point", "coordinates": [18.1480417, 59.1706962]}, "properties": {"name": "Bussgaraget", "category": "public_transport", "subtype": "bus_stop", "source_type": "node", "fetched_at_utc": "2026-03-13T14:25:28.041240+00:00", "tags": {"bench": "yes", "bin": "yes", "highway": "bus_stop", "lit": "yes", "name": "Bussgaraget", "network": "SL", "route_ref": "824;830;835;837;840;893", "shelter": "yes", "tactile_paving": "yes"}}}
{"type": "Feature", "id": "node_617600773", "geometry": {"type": "Point", "coordinates": [18.1433957, 59.1701219]}, "properties": {"name": "Pizzeria Arena", "category": "food", "subtype": "fast_food", "source_type": "node", "fetched_at_utc": "2026-03-13T14:25:28.041240+00:00", "tags": {"amenity": "fast_food", "name": "Pizzeria Arena"}}}
{"type": "Feature", "id": "node_685970946", "geometry": {"type": "Point", "coordinates": [18.1669516, 59.1834731]}, "properties": {"name": "Anderssons Pizzeria", "category": "food", "subtype": "fast_food", "source_type": "node", "fetched_at_utc": "2026-03-13T14:25:28.041240+00:00", "tags": {"amenity": "fast_food", "cuisine": "kebab;pizza;pasta", "name": "Anderssons Pizzeria"}}}
{"type": "Feature", "id": "node_721836322", "geometry": {"type": "Point", "coordinates": [18.1825849, 59.1851958]}, "properties": {"name": "Klenavägen", "category": "public_transport", "subtype": "bus_stop", "source_type": "node", "fetched_at_utc": "2026-03-13T14:25:28.041240+00:00", "tags": {"bench": "yes", "bin": "yes", "highway": "bus_stop", "name": "Klenavägen", "network": "SL", "shelter": "yes", "tactile_paving": "yes"}}}
{"type": "Feature", "id": "node_721836323", "geometry": {"type": "Point", "coordinates": [18.1837564, 59.185855]}, "properties": {"name": "Klenavägen", "category": "public_transport", "subtype": "bus_stop", "source_type": "node", "fetched_at_utc": "2026-03-13T14:25:28.041240+00:00", "tags": {"bench": "yes", "bin": "yes", "highway": "bus_stop", "name": "Klenavägen", "network": "SL", "shelter": "yes", "tactile_paving": "yes"}}}
{"type": "Feature", "id": "node_721836326", "geometry": {"type": "Point", "coordinates": [18.1759484, 59.1784773]}, "properties": {"name": "Evertsbergsvägen", "category": "public_transport", "subtype": "bus_stop", "source_type": "node", "fetched_at_utc": "2026-03-13T14:25:28.041240+00:00", "tags": {"bench": "yes", "bin": "yes", "highway": "bus_stop", "lit": "yes", "name": "Evertsbergsvägen", "network": "SL", "shelter": "yes", "tactile_paving": "yes"}}}
{"type": "Feature", "id": "node_721836327", "geometry": {"type": "Point", "coordinates": [18.17391, 59.1780815]}, "properties": {"name": "Evertsbergsvägen", "category": "public_transport", "subtype": "bus_stop", "source_type": "node", "fetched_at_utc": "2026-03-13T14:25:28.041240+00:00", "tags": {"bench": "yes", "bin": "yes", "highway": "bus_stop", "name": "Evertsbergsvägen", "network": "SL", "shelter": "yes", "tactile_paving": "yes"}}}
{"type": "Feature", "id": "node_721836328", "geometry": {"type": "Point", "coordinates": [18.1867202, 59.1925139]}, "properties": {"name": "Djurgårdsvägen", "category": "public_transport", "subtype": "bus_stop", "source_type": "node", "fetched_at_utc": "2026-03-13T14:25:28.041240+00:00", "tags": {"bench": "yes", "bin": "yes", "highway": "bus_stop", "name": "Djurgårdsvägen", "network": "SL", "route_ref": "806;807;808;818C;824;892", "shelter": "yes", "tactile_paving": "yes"}}}
{"type": "Feature", "id": "node_721836330", "geometry": {"type": "Point", "coordinates": [18.1849197, 59.1919209]}, "properties": {"name": "Djurgårdsvägen", "category": "public_transport", "subtype": "bus_stop", "source_type": "node", "fetched_at_utc": "2026-03-13T14:25:28.041240+00:00", "tags": {"bench": "yes", "bin": "yes", "check_date:shelter": "2025-04-01", "highway": "bus_stop", "name": "Djurgårdsvägen", "network": "SL", "route_ref": "806;807;818C;824;892", "shelter": "yes"}}}
{"type": "Feature", "id": "node_721836331", "geometry": {"type": "Point", "coordinates": [18.180869, 59.1809428]}, "properties": {"name": "Tyrestavägen", "category": "public_transport", "subtype": "bus_stop", "source_type": "node", "fetched_at_utc": "2026-03-13T14:25:28.041240+00:00", "tags": {"bench": "yes", "bin": "yes", "highway": "bus_stop", "name": "Tyrestavägen", "network": "SL", "shelter": "yes", "tactile_paving": "yes"}}}
{"type": "Feature", "id": "node_992868785", "geometry": {"type": "Point", "coordinates": [18.0433585, 59.1065945]}, "properties": {"name": "Tungelsta skola", "category": "public_transport", "subtype": "bus_stop", "source_type": "node", "fetched_at_utc": "2026-03-13T14:25:28.041240+00:00", "tags": {"bench": "yes", "highway": "bus_stop", "name": "Tungelsta skola", "network": "SL", "route_ref": "835;848;893", "shelter": "yes"}}}
{"type": "Feature", "id": "node_992869171", "geometry": {"type": "Point", "coordinates": [18.0465581, 59.1080014]}, "properties": {"name": "Hammarbergsvägen", "category": "public_transport", "subtype": "bus_stop", "source_type": "node", "fetched_at_utc": "2026-03-13T14:25:28.041240+00:00", "tags": {"bench": "yes", "highway": "bus_stop", "name": "Hammarbergsvägen", "network": "SL", "route_ref": "835;848;893", "shelter": "yes"}}}
{"type": "Feature", "id": "node_992896606", "geometry": {"type": "Point", "coordinates": [18.0603388, 59.1151102]}, "properties": {"name": "Lidaskolan", "category": "public_transport", "subtype": "bus_stop", "source_type": "node", "fetched_at_utc": "2026-03-13T14:25:28.041240+00:00", "tags": {"bench": "yes", "highway": "bus_stop", "name": "Lidaskolan", "network": "SL", "route_ref": "835;848;893", "shelter": "yes"}}}
{"type": "Feature", "id": "node_992899470", "geometry": {"type": "Point", "coordinates": [18.099529, 59.1231834]}, "properties": {"name": "Norrskogsvägen", "category": "public_transport", "subtype": "bus_stop", "source_type": "node", "fetched_at_utc": "2026-03-13T14:25:28.041240+00:00", "tags": {"bench": "yes", "highway": "bus_stop", "name": "Norrskogsvägen", "network": "SL", "network:wikidata": "Q970452", "route_ref": "835;848;893", "shelter": "yes"}}}
{"type": "Feature", "id": "node_992899829", "geometry": {"type": "Point", "coordinates": [18.1061463, 59.1245933]}, "properties": {"name": "Åbyplan", "category": "public_transport", "subtype": "bus_stop", "source_type": "node", "fetched_at_utc": "2026-03-13T14:25:28.041240+00:00", "tags": {"bench": "yes", "highway": "bus_stop", "name": "Åbyplan", "network": "SL", "network:wikidata": "Q970452", "route_ref": "835;848;893", "shelter": "yes"}}}
{"type": "Feature", "id": "node_992900857", "geometry": {"type": "Point", "coordinates": [18.1040217, 59.1230388]}, "properties": {"name": "Västerhaninge station", "category": "public_transport", "subtype": "bus_stop", "source_type": "node", "fetched_at_utc": "2026-03-13T14:25:28.041240+00:00", "tags": {"highway": "bus_stop", "name": "Västerhaninge station", "network": "SL", "network:wikidata": "Q970452", "shelter": "yes"}}}
{"type": "Feature", "id": "node_1161573078", "geometry": {"type": "Point", "coordinates": [18.1901971, 59.1990329]}, "properties": {"name": "Sågen", "category": "public_transport", "subtype": "bus_stop", "source_type": "node", "fetched_at_utc": "2026-03-13T14:25:28.041240+00:00", "tags": {"bench": "yes", "bin": "yes", "check_date:shelter": "2025-04-01", "highway": "bus_stop", "name": "Sågen", "network": "SL", "route_ref": "806;807;818C;824;892", "shelter": "yes", "tactile_paving": "yes"}}}
{"type": "Feature", "id": "node_1161573122", "geometry": {"type": "Point", "coordinates": [18.1904932, 59.1989162]}, "properties": {"name": "Sågen", "category": "public_transport", "subtype": "bus_stop", "source_type": "node", "fetched_at_utc": "2026-03-13T14:25:28.041240+00:00", "tags": {"bench": "yes", "bin": "yes", "check_date:shelter": "2025-04-01", "highway": "bus_stop", "name": "Sågen", "network": "SL", "route_ref": "806;807;808;818C;824;892", "shelter": "yes", "tactile_paving": "yes"}}}
{"type": "Feature", "id": "node_1449364677", "geometry": {"type": "Point", "coordinates": [18.1408681, 59.1944156]}, "properties": {"name": "Söderhagsvägen", "category": "public_transport", "subtype": "bus_stop", "source_type": "node", "fetched_at_utc": "2026-03-13T14:25:28.041240+00:00", "tags": {"bench": "yes", "bin": "yes", "highway": "bus_stop", "lit": "yes", "name": "Söderhagsvägen", "network": "SL", "route_ref": "810;829;830;835;893", "shelter": "yes", "tactile_paving": "no"}}}
{"type": "Feature", "id": "node_1449395468", "geometry": {"type": "Point", "coordinates": [18.1263837, 59.1422736]}, "properties": {"name": "Jordbro", "category": "public_transport", "subtype": "pt_stop", "source_type": "node", "fetched_at_utc": "2026-03-13T14:25:28.041240+00:00", "tags": {"name": "Jordbro", "network": "SL", "public_transport": "stop_position", "railway": "stop", "ref": "Jbo", "route_ref": "J43", "train": "yes"}}}
{"type": "Feature", "id": "node_1449395483", "geometry": {"type": "Point", "coordinates": [18.1031676, 59.1231859]}, "properties": {"name": "Västerhaninge", "category": "public_transport", "subtype": "pt_stop", "source_type": "node", "fetched_at_utc": "2026-03-13T14:25:28.041240+00:00", "tags": {"name": "Västerhaninge", "network": "SL", "public_transport": "stop_position", "ref": "Vhe", "route_ref": "J42X;J43;J43X", "train": "yes"}}}
{"type": "Feature", "id": "node_1449395492", "geometry": {"type": "Point", "coordinates": [18.1264003, 59.1415367]}, "properties": {"name": "Jordbro station", "category": "public_transport", "subtype": "bus_stop", "source_type": "node", "fetched_at_utc": "2026-03-13T14:25:28.041240+00:00", "tags": {"bench": "yes", "bin": "yes", "highway": "bus_stop", "lit": "yes", "local_ref": "A", "name": "Jordbro station", "network": "SL", "route_ref": "837;841;892", "shelter": "yes", "tactile_paving": "yes"}}}
{"type": "Feature", "id": "node_1562106326", "geometry": {"type": "Point", "coordinates": [18.1682696, 59.1754147]}, "properties": {"name": "Kulfångsgatan", "category": "public_transport", "subtype": "bus_stop", "source_type": "node", "fetched_at_utc": "2026-03-13T14:25:28.041240+00:00", "tags": {"bench": "yes", "highway": "bus_stop", "name": "Kulfångsgatan", "network": "SL", "realtime_info": "yes", "shelter": "yes"}}}
{"type": "Feature", "id": "node_1562106410", "geometry": {"type": "Point", "coordinates": [18.168558, 59.1757229]}, "properties": {"name": "Kulfångsgatan", "category": "public_transport", "subtype": "bus_stop", "source_type": "node", "fetched_at_utc": "2026-03-13T14:25:28.041240+00:00", "tags": {"bench": "yes", "highway": "bus_stop", "name": "Kulfångsgatan", "network": "SL", "realtime_info": "yes", "shelter": "yes", "tactile_paving": "yes"}}}
{"type": "Feature", "id": "node_1706928480", "geometry": {"type": "Point", "coordinates": [18.1638234, 59.1668685]}, "properties": {"name": "Klockarleden", "category": "public_transport", "subtype": "bus_stop", "source_type": "node", "fetched_at_utc": "2026-03-13T14:25:28.041240+00:00", "tags": {"bench": "yes", "highway": "bus_stop", "name": "Klockarleden", "network": "SL", "ref": "80579", "route_ref": "807;809;809C;824;829;841;842;892", "shelter": "yes", "tactile_paving": "no"}}}
{"type": "Feature", "id": "node_1710058643", "geometry": {"type": "Point", "coordinates": [18.1812049, 59.1805139]}, "properties": {"name": "Mias Pizza o kök", "category": "food", "subtype": "fast_food", "source_type": "node", "fetched_at_utc": "2026-03-13T14:25:28.041240+00:00", "tags": {"addr:city": "VENDELSÖ", "addr:country": "SE", "addr:housenumber": "2", "addr:postcode": "136 68", "addr:street": "Evabergsvägen", "amenity": "fast_food", "cuisine": "pizza", "indoor_seating": "yes", "name": "Mias Pizza o kök", "outdoor_seating": "yes"}}}
{"type": "Feature", "id": "node_1710058647", "geometry": {"type": "Point", "coordinates": [18.180647, 59.1796948]}, "properties": {"name": "La carda pizzeria", "category": "food", "subtype": "fast_food", "source_type": "node", "fetched_at_utc": "2026-03-13T14:25:28.041240+00:00", "tags": {"amenity": "fast_food", "cuisine": "pizza", "name": "La carda pizzeria"}}}
{"type": "Feature", "id": "node_1710058649", "geometry": {"type": "Point", "coordinates": [18.1815335, 59.1849069]}, "properties": {"name": "Lorina", "category": "food", "subtype": "restaurant", "source_type": "node", "fetched_at_utc": "2026-03-13T14:25:28.041240+00:00", "tags": {"addr:country": "SE", "addr:housenumber": "2", "addr:street": "Klenavägen", "amenity": "restaurant", "cuisine": "italian", "indoor_seating": "yes", "name": "Lorina", "outdoor_seating": "yes"}}}
{"type": "Feature", "id": "node_1710058662", "geometry": {"type": "Point", "coordinates": [18.1806846, 59.1799697]}, "properties": {"name": "Thai food & Sushi", "category": "food", "subtype": "fast_food", "source_type": "node", "fetched_at_utc": "2026-03-13T14:25:28.041240+00:00", "tags": {"amenity": "fast_food", "cuisine": "thai", "indoor_seating": "yes", "name": "Thai food & Sushi", "outdoor_seating": "yes"}}}
{"type": "Feature", "id": "node_1710069364", "geometry": {"type": "Point", "coordinates": [18.1795526, 59.1800528]}, "properties": {"name": "Tyrestavägen", "category": "public_transport", "subtype": "bus_stop", "source_type": "node", "fetched_at_utc": "2026-03-13T14:25:28.041240+00:00", "tags": {"bench": "yes", "bin": "yes", "highway": "bus_stop", "name": "Tyrestavägen", "network": "SL", "shelter": "yes"}}}
{"type": "Feature", "id": "node_1711049686", "geometry": {"type": "Point", "coordinates": [18.178503, 59.1908124]}, "properties": {"name": "Mårtensberg", "category": "public_transport", "subtype": "bus_stop", "source_type": "node", "fetched_at_utc": "2026-03-13T14:25:28.041240+00:00", "tags": {"bench": "no", "bin": "yes", "highway": "bus_stop", "mapillary": "183781616953266", "name": "Mårtensberg", "network": "SL", "route_ref": "806;832", "shelter": "no"}}}
{"type": "Feature", "id": "node_1711049727", "geometry": {"type": "Point", "coordinates": [18.17868, 59.1905693]}, "properties": {"name": "Mårtensberg", "category": "public_transport", "subtype": "bus_stop", "source_type": "node", "fetched_at_utc": "2026-03-13T14:25:28.041240+00:00", "tags": {"bench": "no", "bin": "yes", "highway": "bus_stop", "lit": "no", "name": "Mårtensberg", "network": "SL", "route_ref": "806;832", "shelter": "yes", "tactile_paving": "yes"}}}
{"type": "Feature", "id": "node_1714811983", "geometry": {"type": "Point", "coordinates": [18.1693127, 59.1725543]}, "properties": {"name": "Brandbergens centrum", "category": "public_transport", "subtype": "bus_stop", "source_type": "node", "fetched_at_utc": "2026-03-13T14:25:28.041240+00:00", "tags": {"bench": "yes", "highway": "bus_stop", "local_ref": "A", "name": "Brandbergens centrum", "network": "SL", "ref": "80109", "route_ref": "836;981", "shelter": "yes", "tactile_paving": "no"}}}
{"type": "Feature", "id": "node_1714812286", "geometry": {"type": "Point", "coordinates": [18.1689108, 59.1729131]}, "properties": {"name": "Brandbergens centrum", "category": "public_transport", "subtype": "bus_stop", "source_type": "node", "fetched_at_utc": "2026-03-13T14:25:28.041240+00:00", "tags": {"bench": "yes", "bin": "yes", "check_date:shelter": "2025-08-08", "highway": "bus_stop", "local_ref": "C", "name": "Brandbergens centrum", "network": "SL", "route_ref": "807;818", "shelter": "yes", "tactile_paving": "yes"}}}
{"type": "Feature", "id": "node_1714812436", "geometry": {"type": "Point", "coordinates": [18.1690757, 59.1730749]}, "properties": {"name": "Brandbergens centrum", "category": "public_transport", "subtype": "bus_stop", "source_type": "node", "fetched_at_utc": "2026-03-13T14:25:28.041240+00:00", "tags": {"bench": "yes", "bin": "yes", "check_date:shelter": "2025-08-08", "highway": "bus_stop", "local_ref": "E", "name": "Brandbergens centrum", "network": "SL", "route_ref": "824;829;834;842;892", "shelter": "yes", "tactile_paving": "yes"}}}
{"type": "Feature", "id": "node_1853262054", "geometry": {"type": "Point", "coordinates": [18.2185462, 59.1678413]}, "properties": {"name": "Haningealpen", "category": "public_transport", "subtype": "bus_stop", "source_type": "node", "fetched_at_utc": "2026-03-13T14:25:28.041240+00:00", "tags": {"highway": "bus_stop", "name": "Haningealpen", "network": "SL", "ref": "80885", "route_ref": "834", "shelter": "no"}}}
{"type": "Feature", "id": "node_1853262057", "geometry": {"type": "Point", "coordinates": [18.2201374, 59.1680579]}, "properties": {"name": "Haningealpen", "category": "public_transport", "subtype": "bus_stop", "source_type": "node", "fetched_at_utc": "2026-03-13T14:25:28.041240+00:00", "tags": {"bench": "no", "bin": "no", "highway": "bus_stop", "name": "Haningealpen", "network": "SL", "route_ref": "834", "shelter": "no", "tactile_paving": "no"}}}
{"type": "Feature", "id": "node_1853262069", "geometry": {"type": "Point", "coordinates": [18.1864146, 59.1739427]}, "properties": {"name": "Ramsdalsvägen", "category": "public_transport", "subtype": "bus_stop", "source_type": "node", "fetched_at_utc": "2026-03-13T14:25:28.041240+00:00", "tags": {"highway": "bus_stop", "name": "Ramsdalsvägen", "network": "SL", "ref": "80889", "route_ref": "807;809;809C;834", "shelter": "no"}}}
{"type": "Feature", "id": "node_1853262070", "geometry": {"type": "Point", "coordinates": [18.1855212, 59.1743384]}, "properties": {"name": "Ramsdalsvägen", "category": "public_transport", "subtype": "bus_stop", "source_type": "node", "fetched_at_utc": "2026-03-13T14:25:28.041240+00:00", "tags": {"bench": "yes", "bin": "yes", "highway": "bus_stop", "name": "Ramsdalsvägen", "network": "SL", "ref": "80890", "shelter": "yes"}}}
{"type": "Feature", "id": "node_1853262071", "geometry": {"type": "Point", "coordinates": [18.1975676, 59.1689563]}, "properties": {"name": "Svartbäcken", "category": "public_transport", "subtype": "bus_stop", "source_type": "node", "fetched_at_utc": "2026-03-13T14:25:28.041240+00:00", "tags": {"bench": "yes", "bin": "yes", "highway": "bus_stop", "lit": "yes", "name": "Svartbäcken", "network": "SL", "ref": "80894", "shelter": "yes", "tactile_paving": "yes"}}}
{"type": "Feature", "id": "node_1853262072", "geometry": {"type": "Point", "coordinates": [18.1917166, 59.1707959]}, "properties": {"name": "Svartbäcksskolan", "category": "public_transport", "subtype": "bus_stop", "source_type": "node", "fetched_at_utc": "2026-03-13T14:25:28.041240+00:00", "tags": {"highway": "bus_stop", "name": "Svartbäcksskolan", "network": "SL", "route_ref": "807;809;809C;834", "shelter": "no"}}}
{"type": "Feature", "id": "node_1853262073", "geometry": {"type": "Point", "coordinates": [18.1922178, 59.1708498]}, "properties": {"name": "Svartbäcksskolan", "category": "public_transport", "subtype": "bus_stop", "source_type": "node", "fetched_at_utc": "2026-03-13T14:25:28.041240+00:00", "tags": {"highway": "bus_stop", "name": "Svartbäcksskolan", "network": "SL", "ref": "80892", "shelter": "yes"}}}
{"type": "Feature", "id": "node_1853262074", "geometry": {"type": "Point", "coordinates": [18.2360491, 59.1696684]}, "properties": {"name": "Tyresta by", "category": "public_transport", "subtype": "bus_stop", "source_type": "node", "fetched_at_utc": "2026-03-13T14:25:28.041240+00:00", "tags": {"bench": "yes", "bin": "yes", "departures_board": "yes", "highway": "bus_stop", "lit": "no", "name": "Tyresta by", "network": "SL", "network:wikidata": "Q970452", "route_ref": "834", "shelter": "yes", "tactile_paving": "yes"}}}
{"type": "Feature", "id": "node_1853527155", "geometry": {"type": "Point", "coordinates": [18.1696384, 59.1729584]}, "properties": {"name": "Brandbergens centrum", "category": "public_transport", "subtype": "bus_stop", "source_type": "node", "fetched_at_utc": "2026-03-13T14:25:28.041240+00:00", "tags": {"bench": "yes", "bin": "yes", "check_date:shelter": "2025-08-08", "highway": "bus_stop", "local_ref": "D", "name": "Brandbergens centrum", "network": "SL", "route_ref": "824;829;834;841;842;892", "shelter": "yes", "tactile_paving": "yes"}}}
{"type": "Feature", "id": "node_1853560055", "geometry": {"type": "Point", "coordinates": [18.1482587, 59.1709815]}, "properties": {"name": "Bussgaraget", "category": "public_transport", "subtype": "bus_stop", "source_type": "node", "fetched_at_utc": "2026-03-13T14:25:28.041240+00:00", "tags": {"bench": "yes", "bin": "yes", "highway": "bus_stop", "lit": "yes", "name": "Bussgaraget", "network": "SL", "route_ref": "830;835;836;837;840;841;893", "shelter": "yes", "tactile_paving": "yes"}}}
{"type": "Feature", "id": "node_1853560072", "geometry": {"type": "Point", "coordinates": [18.1469876, 59.1678854]}, "properties": {"name": "Bragevägen", "category": "public_transport", "subtype": "bus_stop", "source_type": "node", "fetched_at_utc": "2026-03-13T14:25:28.041240+00:00", "tags": {"bench": "yes", "bin": "yes", "highway": "bus_stop", "lit": "yes", "name": "Bragevägen", "network": "SL", "shelter": "yes", "tactile_paving": "no"}}}
{"type": "Feature", "id": "node_1853560081", "geometry": {"type": "Point", "coordinates": [18.1466917, 59.1679771]}, "properties": {"name": "Bragevägen", "category": "public_transport", "subtype": "bus_stop", "source_type": "node", "fetched_at_utc": "2026-03-13T14:25:28.041240+00:00", "tags": {"bench": "yes", "bin": "yes", "highway": "bus_stop", "name": "Bragevägen", "network": "SL", "shelter": "yes"}}}
{"type": "Feature", "id": "node_1853560085", "geometry": {"type": "Point", "coordinates": [18.1611834, 59.1700097]}, "properties": {"name": "Söderbyleden", "category": "public_transport", "subtype": "bus_stop", "source_type": "node", "fetched_at_utc": "2026-03-13T14:25:28.041240+00:00", "tags": {"bench": "yes", "bin": "yes", "highway": "bus_stop", "lit": "yes", "name": "Söderbyleden", "network": "SL", "ref": "80123", "route_ref": "807;809;809C;834;842;892", "shelter": "yes", "tactile_paving": "yes"}}}
{"type": "Feature", "id": "node_1853560087", "geometry": {"type": "Point", "coordinates": [18.1614677, 59.1702113]}, "properties": {"name": "Söderbyleden", "category": "public_transport", "subtype": "bus_stop", "source_type": "node", "fetched_at_utc": "2026-03-13T14:25:28.041240+00:00", "tags": {"bench": "yes", "bin": "yes", "highway": "bus_stop", "lit": "yes", "name": "Söderbyleden", "network": "SL", "ref": "80124", "route_ref": "807;809;809C;834;842;981", "shelter": "yes", "tactile_paving": "yes"}}}
{"type": "Feature", "id": "node_1854558184", "geometry": {"type": "Point", "coordinates": [18.1797194, 59.1712685]}, "properties": {"name": "Skyttens gata", "category": "public_transport", "subtype": "bus_stop", "source_type": "node", "fetched_at_utc": "2026-03-13T14:25:28.041240+00:00", "tags": {"highway": "bus_stop", "name": "Skyttens gata", "network": "SL", "shelter": "yes"}}}
{"type": "Feature", "id": "node_1854558188", "geometry": {"type": "Point", "coordinates": [18.1795204, 59.1717174]}, "properties": {"name": "Skyttens gata", "category": "public_transport", "subtype": "bus_stop", "source_type": "node", "fetched_at_utc": "2026-03-13T14:25:28.041240+00:00", "tags": {"bench": "yes", "bin": "yes", "highway": "bus_stop", "name": "Skyttens gata", "network": "SL", "shelter": "yes", "tactile_paving": "yes"}}}
{"type": "Feature", "id": "node_1854558190", "geometry": {"type": "Point", "coordinates": [18.1736174, 59.1666627]}, "properties": {"name": "Vattumannens gata", "category": "public_transport", "subtype": "bus_stop", "source_type": "node", "fetched_at_utc": "2026-03-13T14:25:28.041240+00:00", "tags": {"highway": "bus_stop", "name": "Vattumannens gata", "network": "SL", "network:wikidata": "Q970452", "shelter": "yes"}}}
{"type": "Feature", "id": "node_1854558193", "geometry": {"type": "Point", "coordinates": [18.1720962, 59.167072]}, "properties": {"name": "Vattumannens gata", "category": "public_transport", "subtype": "bus_stop", "source_type": "node", "fetched_at_utc": "2026-03-13T14:25:28.041240+00:00", "tags": {"bench": "yes", "bin": "yes", "highway": "bus_stop", "name": "Vattumannens gata", "network": "SL", "network:wikidata": "Q970452", "shelter": "yes"}}}
{"type": "Feature", "id": "node_1854558207", "geometry": {"type": "Point", "coordinates": [18.1678978, 59.1670896]}, "properties": {"name": "Vädurens gata", "category": "public_transport", "subtype": "bus_stop", "source_type": "node", "fetched_at_utc": "2026-03-13T14:25:28.041240+00:00", "tags": {"bench": "yes", "highway": "bus_stop", "name": "Vädurens gata", "network": "SL", "network:wikidata": "Q970452", "shelter": "yes", "tactile_paving": "yes"}}}
{"type": "Feature", "id": "node_1854558210", "geometry": {"type": "Point", "coordinates": [18.1688024, 59.1673359]}, "properties": {"name": "Vädurens gata", "category": "public_transport", "subtype": "bus_stop", "source_type": "node", "fetched_at_utc": "2026-03-13T14:25:28.041240+00:00", "tags": {"bench": "yes", "highway": "bus_stop", "name": "Vädurens gata", "network": "SL", "network:wikidata": "Q970452", "shelter": "yes", "tactile_paving": "yes"}}}
{"type": "Feature", "id": "node_1876572908", "geometry": {"type": "Point", "coordinates": [18.1590144, 59.1817245]}, "properties": {"name": "Ica Maxi", "category": "public_transport", "subtype": "bus_stop", "source_type": "node", "fetched_at_utc": "2026-03-13T14:25:28.041240+00:00", "tags": {"bench": "yes", "bin": "yes", "highway": "bus_stop", "name": "Ica Maxi", "network": "SL", "route_ref": "838", "shelter": "yes", "wheelchair": "yes"}}}
{"type": "Feature", "id": "node_2133554923", "geometry": {"type": "Point", "coordinates": [18.1674897, 59.1871292]}, "properties": {"name": "Järnåldersringen", "category": "public_transport", "subtype": "bus_stop", "source_type": "node", "fetched_at_utc": "2026-03-13T14:25:28.041240+00:00", "tags": {"highway": "bus_stop", "name": "Järnåldersringen", "network": "SL"}}}
{"type": "Feature", "id": "node_2133554925", "geometry": {"type": "Point", "coordinates": [18.1673395, 59.1865191]}, "properties": {"name": "Järnåldersringen", "category": "public_transport", "subtype": "bus_stop", "source_type": "node", "fetched_at_utc": "2026-03-13T14:25:28.041240+00:00", "tags": {"highway": "bus_stop", "name": "Järnåldersringen", "network": "SL"}}}
{"type": "Feature", "id": "node_2133627954", "geometry": {"type": "Point", "coordinates": [18.1663925, 59.183109]}, "properties": {"name": "Fornpasset", "category": "public_transport", "subtype": "bus_stop", "source_type": "node", "fetched_at_utc": "2026-03-13T14:25:28.041240+00:00", "tags": {"bench": "yes", "highway": "bus_stop", "name": "Fornpasset", "network": "SL", "route_ref": "806;832", "shelter": "yes"}}}
{"type": "Feature", "id": "node_2133627955", "geometry": {"type": "Point", "coordinates": [18.16671, 59.1830773]}, "properties": {"name": "Fornpasset", "category": "public_transport", "subtype": "bus_stop", "source_type": "node", "fetched_at_utc": "2026-03-13T14:25:28.041240+00:00", "tags": {"bench": "yes", "highway": "bus_stop", "name": "Fornpasset", "network": "SL", "route_ref": "806;832", "shelter": "yes"}}}
{"type": "Feature", "id": "node_2133627956", "geometry": {"type": "Point", "coordinates": [18.1611863, 59.1821197]}, "properties": {"name": "Myrmalmsringen", "category": "public_transport", "subtype": "bus_stop", "source_type": "node", "fetched_at_utc": "2026-03-13T14:25:28.041240+00:00", "tags": {"highway": "bus_stop", "name": "Myrmalmsringen", "network": "SL", "route_ref": "806;832", "shelter": "yes"}}}
{"type": "Feature", "id": "node_2133627957", "geometry": {"type": "Point", "coordinates": [18.1614653, 59.1819877]}, "properties": {"name": "Myrmalmsringen", "category": "public_transport", "subtype": "bus_stop", "source_type": "node", "fetched_at_utc": "2026-03-13T14:25:28.041240+00:00", "tags": {"highway": "bus_stop", "name": "Myrmalmsringen", "network": "SL", "route_ref": "806;832", "shelter": "yes"}}}
{"type": "Feature", "id": "node_2133631002", "geometry": {"type": "Point", "coordinates": [18.1897036, 59.1941137]}, "properties": {"name": "Skomakarvägen", "category": "public_transport", "subtype": "bus_stop", "source_type": "node", "fetched_at_utc": "2026-03-13T14:25:28.041240+00:00", "tags": {"bench": "yes", "bin": "yes", "check_date:shelter": "2025-04-01", "highway": "bus_stop", "name": "Skomakarvägen", "network": "SL", "route_ref": "806;807;818C;824;892", "shelter": "yes"}}}
{"type": "Feature", "id": "node_2133631003", "geometry": {"type": "Point", "coordinates": [18.1889767, 59.1934942]}, "properties": {"name": "Skomakarvägen", "category": "public_transport", "subtype": "bus_stop", "source_type": "node", "fetched_at_utc": "2026-03-13T14:25:28.041240+00:00", "tags": {"bench": "yes", "bin": "yes", "highway": "bus_stop", "name": "Skomakarvägen", "network": "SL", "route_ref": "806;807;818C;824;892", "shelter": "no", "tactile_paving": "no"}}}
{"type": "Feature", "id": "node_2134126352", "geometry": {"type": "Point", "coordinates": [18.1325231, 59.1477217]}, "properties": {"name": "Nedergården", "category": "public_transport", "subtype": "bus_stop", "source_type": "node", "fetched_at_utc": "2026-03-13T14:25:28.041240+00:00", "tags": {"bench": "yes", "bin": "no", "highway": "bus_stop", "lit": "yes", "name": "Nedergården", "network": "SL", "route_ref": "826;835;838", "shelter": "yes", "tactile_paving": "yes"}}}
{"type": "Feature", "id": "node_2134126521", "geometry": {"type": "Point", "coordinates": [18.1328462, 59.148153]}, "properties": {"name": "Nedergården", "category": "public_transport", "subtype": "bus_stop", "source_type": "node", "fetched_at_utc": "2026-03-13T14:25:28.041240+00:00", "tags": {"bench": "yes", "bin": "no", "highway": "bus_stop", "lit": "yes", "name": "Nedergården", "network": "SL", "route_ref": "826;835;838", "shelter": "yes", "tactile_paving": "yes"}}}
{"type": "Feature", "id": "node_2150048899", "geometry": {"type": "Point", "coordinates": [18.0809518, 59.120542]}, "properties": {"name": "Håga", "category": "public_transport", "subtype": "bus_stop", "source_type": "node", "fetched_at_utc": "2026-03-13T14:25:28.041240+00:00", "tags": {"bench": "yes", "highway": "bus_stop", "name": "Håga", "network": "SL", "network:wikidata": "Q970452", "route_ref": "835;848;893", "shelter": "yes"}}}
{"type": "Feature", "id": "node_2150048923", "geometry": {"type": "Point", "coordinates": [18.081502, 59.1208224]}, "properties": {"name": "Håga", "category": "public_transport", "subtype": "bus_stop", "source_type": "node", "fetched_at_utc": "2026-03-13T14:25:28.041240+00:00", "tags": {"bench": "yes", "highway": "bus_stop", "name": "Håga", "network": "SL", "network:wikidata": "Q970452", "route_ref": "835;848;893", "shelter": "yes"}}}
{"type": "Feature", "id": "node_2150049043", "geometry": {"type": "Point", "coordinates": [18.0893782, 59.1218104]}, "properties": {"name": "Örtagårdsvägen", "category": "public_transport", "subtype": "bus_stop", "source_type": "node", "fetched_at_utc": "2026-03-13T14:25:28.041240+00:00", "tags": {"bench": "yes", "highway": "bus_stop", "name": "Örtagårdsvägen", "network": "SL", "network:wikidata": "Q970452", "route_ref": "835;848;893", "shelter": "yes"}}}
{"type": "Feature", "id": "node_2150049049", "geometry": {"type": "Point", "coordinates": [18.0880286, 59.1218505]}, "properties": {"name": "Örtagårdsvägen", "category": "public_transport", "subtype": "bus_stop", "source_type": "node", "fetched_at_utc": "2026-03-13T14:25:28.041240+00:00", "tags": {"bench": "yes", "highway": "bus_stop", "name": "Örtagårdsvägen", "network": "SL", "network:wikidata": "Q970452", "route_ref": "835;848;893", "shelter": "yes"}}}
{"type": "Feature", "id": "node_2304108767", "geometry": {"type": "Point", "coordinates": [18.1497639, 59.1608039]}, "properties": {"name": "Il Patrino", "category": "food", "subtype": "restaurant", "source_type": "node", "fetched_at_utc": "2026-03-13T14:25:28.041240+00:00", "tags": {"amenity": "restaurant", "entrance": "yes", "name": "Il Patrino", "opening_hours": "Mo-Fr 10:00-21:00, Sa-Su 11:00-21:00", "phone": "+46-8-7450030", "takeaway": "yes"}}}
{"type": "Feature", "id": "node_2342237307", "geometry": {"type": "Point", "coordinates": [18.1442518, 59.174509]}, "properties": {"name": "Handens närsjukhus", "category": "public_transport", "subtype": "bus_stop", "source_type": "node", "fetched_at_utc": "2026-03-13T14:25:28.041240+00:00", "tags": {"bench": "yes", "bin": "yes", "highway": "bus_stop", "lit": "yes", "name": "Handens närsjukhus", "network": "SL", "route_ref": "824;830;835;837;840;893", "shelter": "yes", "tactile_paving": "yes"}}}
{"type": "Feature", "id": "node_2364859114", "geometry": {"type": "Point", "coordinates": [18.1420196, 59.1780131]}, "properties": {"name": "Kolartorpsvägen", "category": "public_transport", "subtype": "bus_stop", "source_type": "node", "fetched_at_utc": "2026-03-13T14:25:28.041240+00:00", "tags": {"bench": "yes", "bin": "yes", "departures_board": "timetable", "highway": "bus_stop", "lit": "yes", "name": "Kolartorpsvägen", "network": "SL", "network:wikidata": "Q970452", "route_ref": "830;837", "shelter": "yes", "tactile_paving": "yes"}}}
{"type": "Feature", "id": "node_2364859115", "geometry": {"type": "Point", "coordinates": [18.1425958, 59.1780685]}, "properties": {"name": "Kolartorpsvägen", "category": "public_transport", "subtype": "bus_stop", "source_type": "node", "fetched_at_utc": "2026-03-13T14:25:28.041240+00:00", "tags": {"bench": "yes", "bin": "yes", "departures_board": "timetable", "highway": "bus_stop", "lit": "yes", "name": "Kolartorpsvägen", "network": "SL", "network:wikidata": "Q970452", "route_ref": "830;837", "shelter": "yes", "tactile_paving": "yes"}}}
{"type": "Feature", "id": "node_2414870379", "geometry": {"type": "Point", "coordinates": [18.1996673, 59.2039841]}, "properties": {"name": "Grindstugan", "category": "public_transport", "subtype": "bus_stop", "source_type": "node", "fetched_at_utc": "2026-03-13T14:25:28.041240+00:00", "tags": {"bench": "yes", "bin": "yes", "check_date:shelter": "2025-11-02", "highway": "bus_stop", "name": "Grindstugan", "network": "SL", "route_ref": "806;807;808;818C;840;892", "shelter": "yes", "tactile_paving": "yes"}}}
{"type": "Feature", "id": "node_2414870380", "geometry": {"type": "Point", "coordinates": [18.2013586, 59.2046866]}, "properties": {"name": "Grindstugan", "category": "public_transport", "subtype": "bus_stop", "source_type": "node", "fetched_at_utc": "2026-03-13T14:25:28.041240+00:00", "tags": {"bench": "yes", "bin": "yes", "check_date:shelter": "2022-10-30", "highway": "bus_stop", "name": "Grindstugan", "network": "SL", "route_ref": "806;807;818C;824;840;892", "shelter": "yes", "tactile_paving": "no"}}}
{"type": "Feature", "id": "node_2414870381", "geometry": {"type": "Point", "coordinates": [18.2079568, 59.2097745]}, "properties": {"name": "Gudö", "category": "public_transport", "subtype": "bus_stop", "source_type": "node", "fetched_at_utc": "2026-03-13T14:25:28.041240+00:00", "tags": {"bench": "yes", "bin": "yes", "check_date:shelter": "2022-10-30", "highway": "bus_stop", "lit": "no", "name": "Gudö", "network": "SL", "route_ref": "806;807;818C;824;840;892", "shelter": "yes", "tactile_paving": "yes"}}}
{"type": "Feature", "id": "node_2414870382", "geometry": {"type": "Point", "coordinates": [18.2086841, 59.2108125]}, "properties": {"name": "Gudö", "category": "public_transport", "subtype": "bus_stop", "source_type": "node", "fetched_at_utc": "2026-03-13T14:25:28.041240+00:00", "tags": {"bench": "yes", "bin": "yes", "highway": "bus_stop", "lit": "yes", "name": "Gudö", "network": "SL", "route_ref": "806;807;808;818C;824;840;892", "shelter": "yes", "tactile_paving": "yes"}}}
{"type": "Feature", "id": "node_2414962470", "geometry": {"type": "Point", "coordinates": [18.1994857, 59.1687115]}, "properties": {"name": "Svartbäcken", "category": "public_transport", "subtype": "bus_stop", "source_type": "node", "fetched_at_utc": "2026-03-13T14:25:28.041240+00:00", "tags": {"bench": "yes", "bin": "yes", "highway": "bus_stop", "lit": "yes", "name": "Svartbäcken", "network": "SL", "ref": "80893", "shelter": "yes", "tactile_paving": "yes"}}}
{"type": "Feature", "id": "node_2415105632", "geometry": {"type": "Point", "coordinates": [18.1993225, 59.2045992]}, "properties": {"name": "Grindstugan", "category": "public_transport", "subtype": "bus_stop", "source_type": "node", "fetched_at_utc": "2026-03-13T14:25:28.041240+00:00", "tags": {"bench": "yes", "bin": "yes", "check_date:shelter": "2025-04-01", "highway": "bus_stop", "name": "Grindstugan", "network": "SL", "route_ref": "824", "shelter": "yes"}}}
{"type": "Feature", "id": "node_2415105638", "geometry": {"type": "Point", "coordinates": [18.1924508, 59.206225]}, "properties": {"name": "Vendelsö gård", "category": "public_transport", "subtype": "bus_stop", "source_type": "node", "fetched_at_utc": "2026-03-13T14:25:28.041240+00:00", "tags": {"highway": "bus_stop", "name": "Vendelsö gård", "network": "SL", "route_ref": "824", "shelter": "no"}}}
{"type": "Feature", "id": "node_2415105645", "geometry": {"type": "Point", "coordinates": [18.1904846, 59.2018012]}, "properties": {"name": "Västra Strandvägen", "category": "public_transport", "subtype": "bus_stop", "source_type": "node", "fetched_at_utc": "2026-03-13T14:25:28.041240+00:00", "tags": {"bench": "no", "bin": "no", "highway": "bus_stop", "lit": "no", "name": "Västra Strandvägen", "network": "SL", "route_ref": "824", "shelter": "no", "tactile_paving": "no"}}}
{"type": "Feature", "id": "node_2415105652", "geometry": {"type": "Point", "coordinates": [18.188657, 59.1994194]}, "properties": {"name": "Sågen", "category": "public_transport", "subtype": "bus_stop", "source_type": "node", "fetched_at_utc": "2026-03-13T14:25:28.041240+00:00", "tags": {"bench": "yes", "bin": "yes", "check_date:shelter": "2024-10-06", "highway": "bus_stop", "name": "Sågen", "network": "SL", "route_ref": "840", "shelter": "yes", "tactile_paving": "yes"}}}
{"type": "Feature", "id": "node_2415105656", "geometry": {"type": "Point", "coordinates": [18.1890724, 59.1994404]}, "properties": {"name": "Sågen", "category": "public_transport", "subtype": "bus_stop", "source_type": "node", "fetched_at_utc": "2026-03-13T14:25:28.041240+00:00", "tags": {"bench": "yes", "bin": "yes", "check_date:shelter": "2024-10-06", "highway": "bus_stop", "name": "Sågen", "network": "SL", "route_ref": "840", "shelter": "yes", "tactile_paving": "yes"}}}
{"type": "Feature", "id": "node_2485479654", "geometry": {"type": "Point", "coordinates": [18.1625478, 59.166038]}, "properties": {"name": "Klockarleden", "category": "public_transport", "subtype": "bus_stop", "source_type": "node", "fetched_at_utc": "2026-03-13T14:25:28.041240+00:00", "tags": {"bench": "yes", "bin": "yes", "highway": "bus_stop", "lit": "yes", "name": "Klockarleden", "network": "SL", "ref": "80667", "route_ref": "839", "shelter": "yes", "tactile_paving": "no"}}}
{"type": "Feature", "id": "node_2513310455", "geometry": {"type": "Point", "coordinates": [18.1339245, 59.1664468]}, "properties": {"name": "Handen", "category": "public_transport", "subtype": "pt_stop", "source_type": "node", "fetched_at_utc": "2026-03-13T14:25:28.041240+00:00", "tags": {"name": "Handen", "network": "SL", "public_transport": "stop_position", "railway": "stop", "ref": "Hnd", "route_ref": "J42X;J43;J43X", "train": "yes"}}}
{"type": "Feature", "id": "node_2513310456", "geometry": {"type": "Point", "coordinates": [18.0651541, 59.1088347]}, "properties": {"name": "Krigslida", "category": "public_transport", "subtype": "pt_stop", "source_type": "node", "fetched_at_utc": "2026-03-13T14:25:28.041240+00:00", "tags": {"name": "Krigslida", "network": "SL", "public_transport": "stop_position", "ref": "Kda", "route_ref": "J43", "train": "yes"}}}
{"type": "Feature", "id": "node_2513310681", "geometry": {"type": "Point", "coordinates": [18.1247144, 59.1402579]}, "properties": {"name": "Jordbro station", "category": "public_transport", "subtype": "bus_stop", "source_type": "node", "fetched_at_utc": "2026-03-13T14:25:28.041240+00:00", "tags": {"bench": "yes", "highway": "bus_stop", "local_ref": "D", "name": "Jordbro station", "network": "SL", "route_ref": "827;835;842;893", "shelter": "yes"}}}
{"type": "Feature", "id": "node_2513310708", "geometry": {"type": "Point", "coordinates": [18.1254001, 59.1420055]}, "properties": {"name": "Jordbro station", "category": "public_transport", "subtype": "bus_stop", "source_type": "node", "fetched_at_utc": "2026-03-13T14:25:28.041240+00:00", "tags": {"bench": "yes", "highway": "bus_stop", "local_ref": "C", "name": "Jordbro station", "network": "SL", "route_ref": "826;827;835;842;893", "shelter": "yes"}}}
{"type": "Feature", "id": "node_2575849391", "geometry": {"type": "Point", "coordinates": [18.1078932, 59.1257464]}, "properties": {"name": "Hanveden", "category": "public_transport", "subtype": "bus_stop", "source_type": "node", "fetched_at_utc": "2026-03-13T14:25:28.041240+00:00", "tags": {"bench": "yes", "highway": "bus_stop", "name": "Hanveden", "network": "SL", "route_ref": "835;893", "shelter": "yes"}}}
{"type": "Feature", "id": "node_2575852532", "geometry": {"type": "Point", "coordinates": [18.107374, 59.1152381]}, "properties": {"name": "Ribby", "category": "public_transport", "subtype": "bus_stop", "source_type": "node", "fetched_at_utc": "2026-03-13T14:25:28.041240+00:00", "tags": {"bench": "yes", "highway": "bus_stop", "name": "Ribby", "network": "SL", "network:wikidata": "Q970452", "route_ref": "843;846;847", "shelter": "yes"}}}
{"type": "Feature", "id": "node_2677104361", "geometry": {"type": "Point", "coordinates": [18.1417668, 59.1934924]}, "properties": {"name": "Söderhagsvägen", "category": "public_transport", "subtype": "bus_stop", "source_type": "node", "fetched_at_utc": "2026-03-13T14:25:28.041240+00:00", "tags": {"bench": "yes", "bin": "yes", "highway": "bus_stop", "lit": "yes", "name": "Söderhagsvägen", "network": "SL", "route_ref": "810;829;830;835;893", "shelter": "yes", "tactile_paving": "yes"}}}
{"type": "Feature", "id": "node_2696813475", "geometry": {"type": "Point", "coordinates": [18.2282892, 59.1687449]}, "properties": {"name": "Trolladan", "category": "public_transport", "subtype": "bus_stop", "source_type": "node", "fetched_at_utc": "2026-03-13T14:25:28.041240+00:00", "tags": {"bench": "no", "highway": "bus_stop", "name": "Trolladan", "network": "SL", "ref": "80907", "route_ref": "834", "shelter": "no"}}}
{"type": "Feature", "id": "node_2697593519", "geometry": {"type": "Point", "coordinates": [18.143978, 59.1635898]}, "properties": {"name": "Idunvägen", "category": "public_transport", "subtype": "bus_stop", "source_type": "node", "fetched_at_utc": "2026-03-13T14:25:28.041240+00:00", "tags": {"highway": "bus_stop", "name": "Idunvägen", "network": "SL", "route_ref": "832", "shelter": "yes", "tactile_paving": "no"}}}
{"type": "Feature", "id": "node_2697593520", "geometry": {"type": "Point", "coordinates": [18.1414127, 59.1636956]}, "properties": {"name": "Odenvägen", "category": "public_transport", "subtype": "bus_stop", "source_type": "node", "fetched_at_utc": "2026-03-13T14:25:28.041240+00:00", "tags": {"highway": "bus_stop", "name": "Odenvägen", "network": "SL", "route_ref": "832", "shelter": "no", "tactile_paving": "no"}}}
{"type": "Feature", "id": "node_2697593523", "geometry": {"type": "Point", "coordinates": [18.1498247, 59.1632227]}, "properties": {"name": "Vikingaskolan", "category": "public_transport", "subtype": "bus_stop", "source_type": "node", "fetched_at_utc": "2026-03-13T14:25:28.041240+00:00", "tags": {"bench": "yes", "bin": "no", "highway": "bus_stop", "lit": "yes", "name": "Vikingaskolan", "network": "SL", "route_ref": "832", "shelter": "yes", "tactile_paving": "yes"}}}
{"type": "Feature", "id": "node_2703186236", "geometry": {"type": "Point", "coordinates": [18.1862121, 59.1927705]}, "properties": {"name": "Bröderna Yeser Pizzeria", "category": "food", "subtype": "restaurant", "source_type": "node", "fetched_at_utc": "2026-03-13T14:25:28.041240+00:00", "tags": {"addr:city": "VENDELSÖ", "addr:country": "SE", "addr:housenumber": "124", "addr:postcode": "13671", "addr:street": "Vendelsö skolväg", "amenity": "restaurant", "cuisine": "pizza", "name": "Bröderna Yeser Pizzeria", "phone": "+4687762677"}}}
{"type": "Feature", "id": "node_2707502361", "geometry": {"type": "Point", "coordinates": [18.1447032, 59.1744749]}, "properties": {"name": "Handens närsjukhus", "category": "public_transport", "subtype": "bus_stop", "source_type": "node", "fetched_at_utc": "2026-03-13T14:25:28.041240+00:00", "tags": {"bench": "yes", "bin": "yes", "check_date:shelter": "2023-08-19", "highway": "bus_stop", "lit": "yes", "name": "Handens närsjukhus", "network": "SL", "route_ref": "830;835;836;837;840;841;893", "shelter": "yes", "tactile_paving": "yes"}}}
{"type": "Feature", "id": "node_2707502362", "geometry": {"type": "Point", "coordinates": [18.1459851, 59.1759363]}, "properties": {"name": "Mårdvägen", "category": "public_transport", "subtype": "bus_stop", "source_type": "node", "fetched_at_utc": "2026-03-13T14:25:28.041240+00:00", "tags": {"bench": "yes", "bin": "yes", "check_date:shelter": "2023-08-18", "highway": "bus_stop", "lit": "yes", "name": "Mårdvägen", "network": "SL", "route_ref": "836;840", "shelter": "yes", "tactile_paving": "yes"}}}
{"type": "Feature", "id": "node_2707502363", "geometry": {"type": "Point", "coordinates": [18.1468018, 59.176134]}, "properties": {"name": "Mårdvägen", "category": "public_transport", "subtype": "bus_stop", "source_type": "node", "fetched_at_utc": "2026-03-13T14:25:28.041240+00:00", "tags": {"bench": "yes", "bin": "yes", "check_date:shelter": "2023-08-18", "highway": "bus_stop", "lit": "yes", "name": "Mårdvägen", "network": "SL", "route_ref": "836;840", "shelter": "yes", "tactile_paving": "yes"}}}
{"type": "Feature", "id": "node_2707502365", "geometry": {"type": "Point", "coordinates": [18.1597405, 59.1770133]}, "properties": {"name": "Söderbytorp", "category": "public_transport", "subtype": "bus_stop", "source_type": "node", "fetched_at_utc": "2026-03-13T14:25:28.041240+00:00", "tags": {"bench": "yes", "bin": "yes", "highway": "bus_stop", "lit": "no", "name": "Söderbytorp", "network": "SL", "route_ref": "824", "shelter": "no", "tactile_paving": "yes"}}}
{"type": "Feature", "id": "node_2707502367", "geometry": {"type": "Point", "coordinates": [18.1591144, 59.1770709]}, "properties": {"name": "Söderbytorp", "category": "public_transport", "subtype": "bus_stop", "source_type": "node", "fetched_at_utc": "2026-03-13T14:25:28.041240+00:00", "tags": {"bench": "yes", "bin": "yes", "highway": "bus_stop", "lit": "no", "name": "Söderbytorp", "network": "SL", "route_ref": "824", "shelter": "yes", "tactile_paving": "yes"}}}
{"type": "Feature", "id": "node_2805529899", "geometry": {"type": "Point", "coordinates": [18.1702353, 59.1719594]}, "properties": {"name": "Lilla Wiki Bar & Burger's", "category": "food", "subtype": "restaurant", "source_type": "node", "fetched_at_utc": "2026-03-13T14:25:28.041240+00:00", "tags": {"amenity": "restaurant", "name": "Lilla Wiki Bar & Burger's", "opening_hours": "Mo-Th 11:00-23:00, Fr,Sa 11:00-01:30, Su 11:00-22:00"}}}
{"type": "Feature", "id": "node_2817618653", "geometry": {"type": "Point", "coordinates": [18.1441048, 59.1688166]}, "properties": {"name": "Pizza Sallad Handen", "category": "food", "subtype": "restaurant", "source_type": "node", "fetched_at_utc": "2026-03-13T14:25:28.041240+00:00", "tags": {"amenity": "restaurant", "name": "Pizza Sallad Handen"}}}
{"type": "Feature", "id": "node_2818620917", "geometry": {"type": "Point", "coordinates": [18.1451076, 59.1699917]}, "properties": {"name": "Amelitas Redovisning", "category": "office", "subtype": "office_tag", "source_type": "node", "fetched_at_utc": "2026-03-13T14:25:28.041240+00:00", "tags": {"name": "Amelitas Redovisning", "office": "accountant"}}}
{"type": "Feature", "id": "node_2818620920", "geometry": {"type": "Point", "coordinates": [18.1451388, 59.1697263]}, "properties": {"name": "Dental Laboratorium", "category": "office", "subtype": "office_company", "source_type": "node", "fetched_at_utc": "2026-03-13T14:25:28.041240+00:00", "tags": {"name": "Dental Laboratorium", "office": "company"}}}
{"type": "Feature", "id": "node_2818620950", "geometry": {"type": "Point", "coordinates": [18.1437063, 59.1711408]}, "properties": {"name": "Unnamed", "category": "food", "subtype": "restaurant", "source_type": "node", "fetched_at_utc": "2026-03-13T14:25:28.041240+00:00", "tags": {"addr:country": "SE", "addr:housenumber": "22A", "addr:street": "Runstensvägen", "amenity": "restaurant"}}}
{"type": "Feature", "id": "node_2942213926", "geometry": {"type": "Point", "coordinates": [18.1932972, 59.1299528]}, "properties": {"name": "Österhaningevägen", "category": "public_transport", "subtype": "bus_stop", "source_type": "node", "fetched_at_utc": "2026-03-13T14:25:28.041240+00:00", "tags": {"highway": "bus_stop", "name": "Österhaningevägen", "network": "SL", "network:wikidata": "Q970452", "ref": "80643", "route_ref": "839;869", "shelter": "no"}}}
{"type": "Feature", "id": "node_2942213932", "geometry": {"type": "Point", "coordinates": [18.1892505, 59.1340331]}, "properties": {"name": "Klockarlötsvägen", "category": "public_transport", "subtype": "bus_stop", "source_type": "node", "fetched_at_utc": "2026-03-13T14:25:28.041240+00:00", "tags": {"highway": "bus_stop", "name": "Klockarlötsvägen", "network": "SL", "network:wikidata": "Q970452", "route_ref": "839;869", "shelter": "no"}}}
{"type": "Feature", "id": "node_2942213949", "geometry": {"type": "Point", "coordinates": [18.1855504, 59.1403865]}, "properties": {"name": "Högstavägen", "category": "public_transport", "subtype": "bus_stop", "source_type": "node", "fetched_at_utc": "2026-03-13T14:25:28.041240+00:00", "tags": {"highway": "bus_stop", "name": "Högstavägen", "network": "SL", "network:wikidata": "Q970452", "route_ref": "839;869", "shelter": "no"}}}
{"type": "Feature", "id": "node_2942213953", "geometry": {"type": "Point", "coordinates": [18.1830719, 59.1431069]}, "properties": {"name": "Albyvägen", "category": "public_transport", "subtype": "bus_stop", "source_type": "node", "fetched_at_utc": "2026-03-13T14:25:28.041240+00:00", "tags": {"highway": "bus_stop", "name": "Albyvägen", "network": "SL", "network:wikidata": "Q970452", "route_ref": "839;869", "shelter": "no"}}}
{"type": "Feature", "id": "node_2942213976", "geometry": {"type": "Point", "coordinates": [18.1802998, 59.164834]}, "properties": {"name": "Svartbäcksvägen", "category": "public_transport", "subtype": "bus_stop", "source_type": "node", "fetched_at_utc": "2026-03-13T14:25:28.041240+00:00", "tags": {"highway": "bus_stop", "name": "Svartbäcksvägen", "network": "SL", "network:wikidata": "Q970452", "ref": "80635", "route_ref": "839", "shelter": "no"}}}
{"type": "Feature", "id": "node_2942213977", "geometry": {"type": "Point", "coordinates": [18.1627004, 59.1652418]}, "properties": {"name": "Skäggsmo", "category": "public_transport", "subtype": "bus_stop", "source_type": "node", "fetched_at_utc": "2026-03-13T14:25:28.041240+00:00", "tags": {"highway": "bus_stop", "name": "Skäggsmo", "network": "SL", "ref": "80634", "route_ref": "839", "shelter": "no", "tactile_paving": "no"}}}
{"type": "Feature", "id": "node_2942213978", "geometry": {"type": "Point", "coordinates": [18.1793371, 59.1655414]}, "properties": {"name": "Svartbäcksvägen", "category": "public_transport", "subtype": "bus_stop", "source_type": "node", "fetched_at_utc": "2026-03-13T14:25:28.041240+00:00", "tags": {"highway": "bus_stop", "name": "Svartbäcksvägen", "network": "SL", "network:wikidata": "Q970452", "ref": "80636", "route_ref": "839", "shelter": "no"}}}
{"type": "Feature", "id": "node_2942213982", "geometry": {"type": "Point", "coordinates": [18.1620272, 59.167124]}, "properties": {"name": "Klockarleden", "category": "public_transport", "subtype": "bus_stop", "source_type": "node", "fetched_at_utc": "2026-03-13T14:25:28.041240+00:00", "tags": {"bench": "yes", "highway": "bus_stop", "name": "Klockarleden", "network": "SL", "ref": "80570", "route_ref": "832;834;838;839;842;892;981", "shelter": "yes", "tactile_paving": "yes"}}}
{"type": "Feature", "id": "node_2942213983", "geometry": {"type": "Point", "coordinates": [18.1555353, 59.1672876]}, "properties": {"name": "Torvalla", "category": "public_transport", "subtype": "bus_stop", "source_type": "node", "fetched_at_utc": "2026-03-13T14:25:28.041240+00:00", "tags": {"highway": "bus_stop", "name": "Torvalla", "network": "SL", "route_ref": "824;826;829;834;839;841;842;892", "shelter": "yes", "tactile_paving": "yes"}}}
{"type": "Feature", "id": "node_2942213985", "geometry": {"type": "Point", "coordinates": [18.1628345, 59.1675936]}, "properties": {"name": "Klockarleden", "category": "public_transport", "subtype": "bus_stop", "source_type": "node", "fetched_at_utc": "2026-03-13T14:25:28.041240+00:00", "tags": {"highway": "bus_stop", "name": "Klockarleden", "network": "SL", "ref": "80122", "route_ref": "807;809;809C;834;981;892", "shelter": "yes"}}}
{"type": "Feature", "id": "node_2942213986", "geometry": {"type": "Point", "coordinates": [18.157077, 59.1676691]}, "properties": {"name": "Torvalla", "category": "public_transport", "subtype": "bus_stop", "source_type": "node", "fetched_at_utc": "2026-03-13T14:25:28.041240+00:00", "tags": {"highway": "bus_stop", "name": "Torvalla", "network": "SL", "ref": "80576", "route_ref": "832;834;838;839;841;842;892", "shelter": "yes"}}}
{"type": "Feature", "id": "node_3052366153", "geometry": {"type": "Point", "coordinates": [18.1146601, 59.1479184]}, "properties": {"name": "Adina's café & kök", "category": "food", "subtype": "cafe", "source_type": "node", "fetched_at_utc": "2026-03-13T14:25:28.041240+00:00", "tags": {"amenity": "cafe", "ele": "48.5", "name": "Adina's café & kök"}}}
{"type": "Feature", "id": "node_3053338678", "geometry": {"type": "Point", "coordinates": [18.1827508, 59.1442683]}, "properties": {"name": "Albyvägen", "category": "public_transport", "subtype": "bus_stop", "source_type": "node", "fetched_at_utc": "2026-03-13T14:25:28.041240+00:00", "tags": {"highway": "bus_stop", "name": "Albyvägen", "network": "SL", "network:wikidata": "Q970452", "ref": "80638", "route_ref": "839;869", "shelter": "no", "tactile_paving": "no"}}}
{"type": "Feature", "id": "node_3053338680", "geometry": {"type": "Point", "coordinates": [18.1891092, 59.1346759]}, "properties": {"name": "Klockarlötsvägen", "category": "public_transport", "subtype": "bus_stop", "source_type": "node", "fetched_at_utc": "2026-03-13T14:25:28.041240+00:00", "tags": {"highway": "bus_stop", "name": "Klockarlötsvägen", "network": "SL", "network:wikidata": "Q970452", "ref": "80642", "route_ref": "839;869", "shelter": "yes"}}}
{"type": "Feature", "id": "node_3053338681", "geometry": {"type": "Point", "coordinates": [18.2243201, 59.1223021]}, "properties": {"name": "Lännåker", "category": "public_transport", "subtype": "bus_stop", "source_type": "node", "fetched_at_utc": "2026-03-13T14:25:28.041240+00:00", "tags": {"highway": "bus_stop", "name": "Lännåker", "network": "SL", "network:wikidata": "Q970452", "route_ref": "839;845;869", "shelter": "no"}}}
{"type": "Feature", "id": "node_3053338690", "geometry": {"type": "Point", "coordinates": [18.2157172, 59.1244877]}, "properties": {"name": "Södersund", "category": "public_transport", "subtype": "bus_stop", "source_type": "node", "fetched_at_utc": "2026-03-13T14:25:28.041240+00:00", "tags": {"bench": "no", "bin": "no", "highway": "bus_stop", "name": "Södersund", "network": "SL", "network:wikidata": "Q970452", "ref": "80684", "route_ref": "839;845;869", "shelter": "no", "tactile_paving": "no"}}}
{"type": "Feature", "id": "node_3161835196", "geometry": {"type": "Point", "coordinates": [18.1358973, 59.1866623]}, "properties": {"name": "Vega", "category": "public_transport", "subtype": "pt_stop", "source_type": "node", "fetched_at_utc": "2026-03-13T14:25:28.041240+00:00", "tags": {"name": "Vega", "network": "SL", "public_transport": "stop_position", "railway": "stop", "ref": "Vga", "route_ref": "J43", "train": "yes"}}}
{"type": "Feature", "id": "node_3161835197", "geometry": {"type": "Point", "coordinates": [18.1355824, 59.1866749]}, "properties": {"name": "Vega", "category": "public_transport", "subtype": "pt_stop", "source_type": "node", "fetched_at_utc": "2026-03-13T14:25:28.041240+00:00", "tags": {"name": "Vega", "network": "SL", "public_transport": "stop_position", "railway": "stop", "ref": "Vga", "route_ref": "J43", "train": "yes"}}}
{"type": "Feature", "id": "node_3219606550", "geometry": {"type": "Point", "coordinates": [18.1452226, 59.1889266]}, "properties": {"name": "Hallstens väg", "category": "public_transport", "subtype": "bus_stop", "source_type": "node", "fetched_at_utc": "2026-03-13T14:25:28.041240+00:00", "tags": {"bench": "yes", "bin": "yes", "highway": "bus_stop", "lit": "yes", "name": "Hallstens väg", "network": "SL", "route_ref": "829;830;835;893", "shelter": "yes", "tactile_paving": "yes"}}}
{"type": "Feature", "id": "node_3219606551", "geometry": {"type": "Point", "coordinates": [18.1449207, 59.1889508]}, "properties": {"name": "Hallstens väg", "category": "public_transport", "subtype": "bus_stop", "source_type": "node", "fetched_at_utc": "2026-03-13T14:25:28.041240+00:00", "tags": {"bench": "yes", "bin": "no", "highway": "bus_stop", "lit": "yes", "name": "Hallstens väg", "network": "SL", "route_ref": "829;830;835;893", "shelter": "yes", "tactile_paving": "yes"}}}
{"type": "Feature", "id": "node_3219606552", "geometry": {"type": "Point", "coordinates": [18.1455956, 59.1854792]}, "properties": {"name": "Kvarntorps industriområde", "category": "public_transport", "subtype": "bus_stop", "source_type": "node", "fetched_at_utc": "2026-03-13T14:25:28.041240+00:00", "tags": {"bench": "yes", "bin": "yes", "departures_board": "timetable", "highway": "bus_stop", "lit": "yes", "name": "Kvarntorps industriområde", "network": "SL", "route_ref": "830;835", "shelter": "yes", "tactile_paving": "yes"}}}
{"type": "Feature", "id": "node_3219606553", "geometry": {"type": "Point", "coordinates": [18.146776, 59.1849989]}, "properties": {"name": "Kvarntorps industriområde", "category": "public_transport", "subtype": "bus_stop", "source_type": "node", "fetched_at_utc": "2026-03-13T14:25:28.041240+00:00", "tags": {"bench": "yes", "bin": "yes", "departures_board": "timetable", "highway": "bus_stop", "lit": "yes", "name": "Kvarntorps industriområde", "network": "SL", "route_ref": "830;835", "shelter": "yes", "tactile_paving": "yes"}}}
{"type": "Feature", "id": "node_3219606554", "geometry": {"type": "Point", "coordinates": [18.1446689, 59.1808565]}, "properties": {"name": "Kvarntorpsvägen", "category": "public_transport", "subtype": "bus_stop", "source_type": "node", "fetched_at_utc": "2026-03-13T14:25:28.041240+00:00", "tags": {"bench": "yes", "bin": "yes", "highway": "bus_stop", "lit": "yes", "name": "Kvarntorpsvägen", "network": "SL", "network:wikidata": "Q970452", "route_ref": "810;830;835", "shelter": "yes", "tactile_paving": "yes"}}}
{"type": "Feature", "id": "node_3219606555", "geometry": {"type": "Point", "coordinates": [18.145184, 59.1810188]}, "properties": {"name": "Kvarntorpsvägen", "category": "public_transport", "subtype": "bus_stop", "source_type": "node", "fetched_at_utc": "2026-03-13T14:25:28.041240+00:00", "tags": {"bench": "yes", "bin": "yes", "highway": "bus_stop", "lit": "yes", "name": "Kvarntorpsvägen", "network": "SL", "network:wikidata": "Q970452", "route_ref": "810;830;835", "shelter": "yes", "tactile_paving": "yes"}}}
{"type": "Feature", "id": "node_3248470910", "geometry": {"type": "Point", "coordinates": [18.1397793, 59.1737437]}, "properties": {"name": "Folkparken", "category": "public_transport", "subtype": "bus_stop", "source_type": "node", "fetched_at_utc": "2026-03-13T14:25:28.041240+00:00", "tags": {"bench": "yes", "bin": "no", "highway": "bus_stop", "lit": "yes", "name": "Folkparken", "network": "SL", "shelter": "yes", "tactile_paving": "yes"}}}
{"type": "Feature", "id": "node_3248470911", "geometry": {"type": "Point", "coordinates": [18.1392661, 59.1705163]}, "properties": {"name": "Runstenstorget", "category": "public_transport", "subtype": "bus_stop", "source_type": "node", "fetched_at_utc": "2026-03-13T14:25:28.041240+00:00", "tags": {"bench": "yes", "bin": "no", "highway": "bus_stop", "lit": "yes", "name": "Runstenstorget", "network": "SL", "route_ref": "810", "shelter": "yes", "tactile_paving": "yes"}}}
{"type": "Feature", "id": "node_3248470912", "geometry": {"type": "Point", "coordinates": [18.1390387, 59.1710831]}, "properties": {"name": "Runstenstorget", "category": "public_transport", "subtype": "bus_stop", "source_type": "node", "fetched_at_utc": "2026-03-13T14:25:28.041240+00:00", "tags": {"bench": "yes", "check_date:shelter": "2023-06-22", "highway": "bus_stop", "name": "Runstenstorget", "network": "SL", "shelter": "yes"}}}
{"type": "Feature", "id": "node_3248470913", "geometry": {"type": "Point", "coordinates": [18.1335115, 59.1364301]}, "properties": {"name": "Kullerstensvägen", "category": "public_transport", "subtype": "bus_stop", "source_type": "node", "fetched_at_utc": "2026-03-13T14:25:28.041240+00:00", "tags": {"bench": "yes", "highway": "bus_stop", "name": "Kullerstensvägen", "network": "SL", "network:wikidata": "Q970452", "route_ref": "837;892", "shelter": "yes"}}}
{"type": "Feature", "id": "node_3248470914", "geometry": {"type": "Point", "coordinates": [18.1347703, 59.1364442]}, "properties": {"name": "Kullerstensvägen", "category": "public_transport", "subtype": "bus_stop", "source_type": "node", "fetched_at_utc": "2026-03-13T14:25:28.041240+00:00", "tags": {"bench": "yes", "highway": "bus_stop", "name": "Kullerstensvägen", "network": "SL", "network:wikidata": "Q970452", "route_ref": "837;892", "shelter": "yes"}}}
{"type": "Feature", "id": "node_3248470915", "geometry": {"type": "Point", "coordinates": [18.1399361, 59.1379181]}, "properties": {"name": "Västerbommen", "category": "public_transport", "subtype": "bus_stop", "source_type": "node", "fetched_at_utc": "2026-03-13T14:25:28.041240+00:00", "tags": {"bench": "yes", "highway": "bus_stop", "name": "Västerbommen", "network": "SL", "network:wikidata": "Q970452", "route_ref": "810;837;892", "shelter": "yes"}}}
{"type": "Feature", "id": "node_3248470916", "geometry": {"type": "Point", "coordinates": [18.1421274, 59.1423855]}, "properties": {"name": "Lerstensvägen", "category": "public_transport", "subtype": "bus_stop", "source_type": "node", "fetched_at_utc": "2026-03-13T14:25:28.041240+00:00", "tags": {"bench": "yes", "highway": "bus_stop", "name": "Lerstensvägen", "network": "SL", "shelter": "yes"}}}
{"type": "Feature", "id": "node_3248470917", "geometry": {"type": "Point", "coordinates": [18.1419492, 59.1441973]}, "properties": {"name": "Sommarbo", "category": "public_transport", "subtype": "bus_stop", "source_type": "node", "fetched_at_utc": "2026-03-13T14:25:28.041240+00:00", "tags": {"bench": "yes", "highway": "bus_stop", "name": "Sommarbo", "network": "SL", "route_ref": "810;837;841;892", "shelter": "yes"}}}
{"type": "Feature", "id": "node_3248470918", "geometry": {"type": "Point", "coordinates": [18.1426611, 59.1451285]}, "properties": {"name": "Sommarbo", "category": "public_transport", "subtype": "bus_stop", "source_type": "node", "fetched_at_utc": "2026-03-13T14:25:28.041240+00:00", "tags": {"bench": "yes", "check_date:shelter": "2023-06-14", "highway": "bus_stop", "name": "Sommarbo", "network": "SL", "route_ref": "810;837;841;892", "shelter": "yes"}}}
{"type": "Feature", "id": "node_3248470919", "geometry": {"type": "Point", "coordinates": [18.1411185, 59.1487899]}, "properties": {"name": "Kvarnbäcksskolan", "category": "public_transport", "subtype": "bus_stop", "source_type": "node", "fetched_at_utc": "2026-03-13T14:25:28.041240+00:00", "tags": {"bench": "yes", "bin": "yes", "check_date:shelter": "2023-06-14", "highway": "bus_stop", "lit": "yes", "name": "Kvarnbäcksskolan", "network": "SL", "route_ref": "810;837;841;892", "shelter": "yes", "tactile_paving": "yes"}}}
{"type": "Feature", "id": "node_3248470920", "geometry": {"type": "Point", "coordinates": [18.1361607, 59.1502644]}, "properties": {"name": "Mostensvägen", "category": "public_transport", "subtype": "bus_stop", "source_type": "node", "fetched_at_utc": "2026-03-13T14:25:28.041240+00:00", "tags": {"bench": "yes", "bin": "yes", "highway": "bus_stop", "lit": "yes", "name": "Mostensvägen", "network": "SL", "route_ref": "810;837;841;892", "shelter": "yes", "tactile_paving": "no"}}}
{"type": "Feature", "id": "node_3248470921", "geometry": {"type": "Point", "coordinates": [18.1341513, 59.1503215]}, "properties": {"name": "Södra Jordbrovägen", "category": "public_transport", "subtype": "bus_stop", "source_type": "node", "fetched_at_utc": "2026-03-13T14:25:28.041240+00:00", "tags": {"bench": "yes", "bin": "no", "highway": "bus_stop", "lit": "yes", "name": "Södra Jordbrovägen", "network": "SL", "route_ref": "826;835;838", "shelter": "yes", "tactile_paving": "no"}}}
{"type": "Feature", "id": "node_3248470922", "geometry": {"type": "Point", "coordinates": [18.1356944, 59.1504956]}, "properties": {"name": "Mostensvägen", "category": "public_transport", "subtype": "bus_stop", "source_type": "node", "fetched_at_utc": "2026-03-13T14:25:28.041240+00:00", "tags": {"bench": "yes", "bin": "no", "highway": "bus_stop", "lit": "yes", "name": "Mostensvägen", "network": "SL", "route_ref": "810;837;841;892", "shelter": "yes", "tactile_paving": "no"}}}
{"type": "Feature", "id": "node_3248470923", "geometry": {"type": "Point", "coordinates": [18.135291, 59.1572334]}, "properties": {"name": "Tuvvägen", "category": "public_transport", "subtype": "bus_stop", "source_type": "node", "fetched_at_utc": "2026-03-13T14:25:28.041240+00:00", "tags": {"bench": "yes", "bin": "yes", "highway": "bus_stop", "name": "Tuvvägen", "network": "SL", "route_ref": "810;835;837;841;842;892;893", "shelter": "yes", "tactile_paving": "yes"}}}
{"type": "Feature", "id": "node_3248470924", "geometry": {"type": "Point", "coordinates": [18.1361735, 59.1582821]}, "properties": {"name": "Tuvvägen", "category": "public_transport", "subtype": "bus_stop", "source_type": "node", "fetched_at_utc": "2026-03-13T14:25:28.041240+00:00", "tags": {"bench": "yes", "bin": "yes", "highway": "bus_stop", "lit": "yes", "name": "Tuvvägen", "network": "SL", "route_ref": "810;835;837;841;842;892;893", "shelter": "yes", "tactile_paving": "yes"}}}
{"type": "Feature", "id": "node_3248470925", "geometry": {"type": "Point", "coordinates": [18.1378213, 59.1614678]}, "properties": {"name": "Vallavägen", "category": "public_transport", "subtype": "bus_stop", "source_type": "node", "fetched_at_utc": "2026-03-13T14:25:28.041240+00:00", "tags": {"bench": "yes", "bin": "yes", "highway": "bus_stop", "lit": "yes", "name": "Vallavägen", "network": "SL", "route_ref": "810;835;837;841;842;865;892;893", "shelter": "yes", "tactile_paving": "yes"}}}
{"type": "Feature", "id": "node_3248470926", "geometry": {"type": "Point", "coordinates": [18.1378287, 59.1623834]}, "properties": {"name": "Vallavägen", "category": "public_transport", "subtype": "bus_stop", "source_type": "node", "fetched_at_utc": "2026-03-13T14:25:28.041240+00:00", "tags": {"bench": "yes", "bin": "yes", "highway": "bus_stop", "lit": "yes", "name": "Vallavägen", "network": "SL", "route_ref": "810;835;837;841;842;865;892;893", "shelter": "yes", "tactile_paving": "yes"}}}
{"type": "Feature", "id": "node_3307762414", "geometry": {"type": "Point", "coordinates": [18.1386793, 59.1653225]}, "properties": {"name": "Rudsjöterrassen", "category": "public_transport", "subtype": "bus_stop", "source_type": "node", "fetched_at_utc": "2026-03-13T14:25:28.041240+00:00", "tags": {"bench": "yes", "bin": "yes", "highway": "bus_stop", "name": "Rudsjöterrassen", "network": "SL", "network:wikidata": "Q970452", "network:wikipedia": "sv:Storstockholms Lokaltrafik", "route_ref": "832;835;837;838;842;892;893", "shelter": "yes"}}}
{"type": "Feature", "id": "node_3307762415", "geometry": {"type": "Point", "coordinates": [18.1381979, 59.1651717]}, "properties": {"name": "Rudsjöterrassen", "category": "public_transport", "subtype": "bus_stop", "source_type": "node", "fetched_at_utc": "2026-03-13T14:25:28.041240+00:00", "tags": {"bench": "yes", "bin": "yes", "highway": "bus_stop", "name": "Rudsjöterrassen", "network": "SL", "shelter": "yes"}}}
{"type": "Feature", "id": "node_3307762417", "geometry": {"type": "Point", "coordinates": [18.1406449, 59.1679547]}, "properties": {"name": "Haninge centrum", "category": "public_transport", "subtype": "bus_stop", "source_type": "node", "fetched_at_utc": "2026-03-13T14:25:28.041240+00:00", "tags": {"bench": "yes", "bin": "yes", "highway": "bus_stop", "lit": "yes", "local_ref": "S", "name": "Haninge centrum", "network": "SL", "route_ref": "824;829;834;839;840;842;892", "shelter": "yes", "tactile_paving": "no"}}}
{"type": "Feature", "id": "node_3307762418", "geometry": {"type": "Point", "coordinates": [18.1417616, 59.1680045]}, "properties": {"name": "Haninge centrum", "category": "public_transport", "subtype": "bus_stop", "source_type": "node", "fetched_at_utc": "2026-03-13T14:25:28.041240+00:00", "tags": {"bench": "yes", "bin": "yes", "highway": "bus_stop", "lit": "yes", "local_ref": "U", "name": "Haninge centrum", "network": "SL", "route_ref": "825;830;836", "shelter": "yes", "tactile_paving": "yes"}}}
{"type": "Feature", "id": "node_3307762419", "geometry": {"type": "Point", "coordinates": [18.1412618, 59.1680468]}, "properties": {"name": "Haninge centrum", "category": "public_transport", "subtype": "bus_stop", "source_type": "node", "fetched_at_utc": "2026-03-13T14:25:28.041240+00:00", "tags": {"bench": "yes", "bin": "yes", "highway": "bus_stop", "lit": "yes", "local_ref": "T", "name": "Haninge centrum", "network": "SL", "route_ref": "826;835;837;865;893", "shelter": "yes", "tactile_paving": "yes"}}}
{"type": "Feature", "id": "node_3307762420", "geometry": {"type": "Point", "coordinates": [18.1402876, 59.1680621]}, "properties": {"name": "Haninge centrum", "category": "public_transport", "subtype": "bus_stop", "source_type": "node", "fetched_at_utc": "2026-03-13T14:25:28.041240+00:00", "tags": {"bench": "yes", "bin": "yes", "highway": "bus_stop", "lit": "yes", "local_ref": "Y", "name": "Haninge centrum", "network": "SL", "route_ref": "824;825;829;830;834;835;836;837;839;840;842;865;892;893", "shelter": "yes", "tactile_paving": "no"}}}
{"type": "Feature", "id": "node_3336394562", "geometry": {"type": "Point", "coordinates": [18.1268413, 59.1418454]}, "properties": {"name": "Jordbro station", "category": "public_transport", "subtype": "bus_stop", "source_type": "node", "fetched_at_utc": "2026-03-13T14:25:28.041240+00:00", "tags": {"bench": "yes", "bin": "yes", "highway": "bus_stop", "lit": "yes", "local_ref": "B", "name": "Jordbro station", "network": "SL", "route_ref": "826;837", "shelter": "yes", "tactile_paving": "yes"}}}
{"type": "Feature", "id": "node_3336394563", "geometry": {"type": "Point", "coordinates": [18.1412224, 59.1425375]}, "properties": {"name": "Lerstensvägen", "category": "public_transport", "subtype": "bus_stop", "source_type": "node", "fetched_at_utc": "2026-03-13T14:25:28.041240+00:00", "tags": {"bench": "yes", "highway": "bus_stop", "name": "Lerstensvägen", "network": "SL", "route_ref": "810;837;892", "shelter": "yes"}}}
{"type": "Feature", "id": "node_3336394564", "geometry": {"type": "Point", "coordinates": [18.1257028, 59.1374918]}, "properties": {"name": "Sandstensvägen", "category": "public_transport", "subtype": "bus_stop", "source_type": "node", "fetched_at_utc": "2026-03-13T14:25:28.041240+00:00", "tags": {"highway": "bus_stop", "name": "Sandstensvägen", "network": "SL", "route_ref": "837;892", "shelter": "no"}}}
{"type": "Feature", "id": "node_3336394565", "geometry": {"type": "Point", "coordinates": [18.1421386, 59.1379699]}, "properties": {"name": "Västerbommen", "category": "public_transport", "subtype": "bus_stop", "source_type": "node", "fetched_at_utc": "2026-03-13T14:25:28.041240+00:00", "tags": {"bench": "yes", "highway": "bus_stop", "name": "Västerbommen", "network": "SL", "network:wikidata": "Q970452", "route_ref": "810;837;892", "shelter": "yes"}}}
{"type": "Feature", "id": "node_3336688685", "geometry": {"type": "Point", "coordinates": [18.140789, 59.1747876]}, "properties": {"name": "Folkparken", "category": "public_transport", "subtype": "bus_stop", "source_type": "node", "fetched_at_utc": "2026-03-13T14:25:28.041240+00:00", "tags": {"bench": "yes", "bin": "no", "highway": "bus_stop", "lit": "yes", "name": "Folkparken", "network": "SL", "shelter": "yes", "tactile_paving": "yes"}}}
{"type": "Feature", "id": "node_3336688686", "geometry": {"type": "Point", "coordinates": [18.1413555, 59.1485288]}, "properties": {"name": "Kvarnbäcksskolan", "category": "public_transport", "subtype": "bus_stop", "source_type": "node", "fetched_at_utc": "2026-03-13T14:25:28.041240+00:00", "tags": {"bench": "yes", "bin": "yes", "check_date:shelter": "2023-06-14", "highway": "bus_stop", "lit": "yes", "name": "Kvarnbäcksskolan", "network": "SL", "shelter": "yes", "tactile_paving": "yes"}}}
{"type": "Feature", "id": "node_3336688687", "geometry": {"type": "Point", "coordinates": [18.1422931, 59.1733562]}, "properties": {"name": "Sjukhusentrén", "category": "public_transport", "subtype": "bus_stop", "source_type": "node", "fetched_at_utc": "2026-03-13T14:25:28.041240+00:00", "tags": {"bench": "yes", "bin": "yes", "highway": "bus_stop", "lit": "yes", "name": "Sjukhusentrén", "network": "SL", "route_ref": "838", "shelter": "yes", "tactile_paving": "no"}}}
{"type": "Feature", "id": "node_3340581772", "geometry": {"type": "Point", "coordinates": [18.1690895, 59.1725518]}, "properties": {"name": "Brandbergens centrum", "category": "public_transport", "subtype": "bus_stop", "source_type": "node", "fetched_at_utc": "2026-03-13T14:25:28.041240+00:00", "tags": {"bench": "no", "highway": "bus_stop", "local_ref": "B", "name": "Brandbergens centrum", "network": "SL", "route_ref": "807", "shelter": "no", "tactile_paving": "no"}}}
{"type": "Feature", "id": "node_3555030099", "geometry": {"type": "Point", "coordinates": [18.1057354, 59.1220305]}, "properties": {"name": "Pizzeria La Bella", "category": "food", "subtype": "restaurant", "source_type": "node", "fetched_at_utc": "2026-03-13T14:25:28.041240+00:00", "tags": {"addr:city": "Västerhaninge", "addr:postcode": "13738", "amenity": "restaurant", "capacity": "20", "cuisine": "pizza", "name": "Pizzeria La Bella", "opening_hours": "Mo-Fr 10:30-21:00; Sa,Su 11:00-21:00", "payment:credit_cards": "yes", "payment:debit_cards": "yes", "takeaway": "yes", "wheelchair": "yes"}}}
{"type": "Feature", "id": "node_3625292238", "geometry": {"type": "Point", "coordinates": [18.0427749, 59.1065043]}, "properties": {"name": "Tungelsta skola", "category": "public_transport", "subtype": "bus_stop", "source_type": "node", "fetched_at_utc": "2026-03-13T14:25:28.041240+00:00", "tags": {"bench": "yes", "highway": "bus_stop", "name": "Tungelsta skola", "network": "SL", "route_ref": "835;848;893", "shelter": "yes"}}}
{"type": "Feature", "id": "node_3731073346", "geometry": {"type": "Point", "coordinates": [18.1090119, 59.1507887]}, "properties": {"name": "Dåntorpsvägen västra", "category": "public_transport", "subtype": "bus_stop", "source_type": "node", "fetched_at_utc": "2026-03-13T14:25:28.041240+00:00", "tags": {"highway": "bus_stop", "name": "Dåntorpsvägen västra", "network": "SL"}}}
{"type": "Feature", "id": "node_3731077034", "geometry": {"type": "Point", "coordinates": [18.106268, 59.1484953]}, "properties": {"name": "Cementvägen västra", "category": "public_transport", "subtype": "bus_stop", "source_type": "node", "fetched_at_utc": "2026-03-13T14:25:28.041240+00:00", "tags": {"highway": "bus_stop", "name": "Cementvägen västra", "network": "SL", "route_ref": "827;837;842"}}}
{"type": "Feature", "id": "node_3731077035", "geometry": {"type": "Point", "coordinates": [18.1067075, 59.1485611]}, "properties": {"name": "Cementvägen västra", "category": "public_transport", "subtype": "bus_stop", "source_type": "node", "fetched_at_utc": "2026-03-13T14:25:28.041240+00:00", "tags": {"highway": "bus_stop", "name": "Cementvägen västra", "network": "SL", "route_ref": "827;842"}}}
{"type": "Feature", "id": "node_3731092612", "geometry": {"type": "Point", "coordinates": [18.1100996, 59.1598772]}, "properties": {"name": "Lillsjövägen", "category": "public_transport", "subtype": "bus_stop", "source_type": "node", "fetched_at_utc": "2026-03-13T14:25:28.041240+00:00", "tags": {"highway": "bus_stop", "name": "Lillsjövägen", "network": "SL", "route_ref": "827", "shelter": "yes"}}}
{"type": "Feature", "id": "node_3731111406", "geometry": {"type": "Point", "coordinates": [18.113547, 59.1415472]}, "properties": {"name": "Armaturvägen norra", "category": "public_transport", "subtype": "bus_stop", "source_type": "node", "fetched_at_utc": "2026-03-13T14:25:28.041240+00:00", "tags": {"bench": "no", "bin": "yes", "check_date:shelter": "2024-10-06", "highway": "bus_stop", "lit": "no", "name": "Armaturvägen norra", "network": "SL", "route_ref": "827;837;842", "shelter": "no", "tactile_paving": "no"}}}
{"type": "Feature", "id": "node_3731111407", "geometry": {"type": "Point", "coordinates": [18.1139196, 59.1416093]}, "properties": {"name": "Armaturvägen norra", "category": "public_transport", "subtype": "bus_stop", "source_type": "node", "fetched_at_utc": "2026-03-13T14:25:28.041240+00:00", "tags": {"bench": "no", "bin": "no", "check_date:shelter": "2024-10-06", "highway": "bus_stop", "lit": "yes", "name": "Armaturvägen norra", "network": "SL", "route_ref": "827;842", "shelter": "no", "tactile_paving": "no"}}}
{"type": "Feature", "id": "node_3731111408", "geometry": {"type": "Point", "coordinates": [18.1138297, 59.1373425]}, "properties": {"name": "Armaturvägen södra", "category": "public_transport", "subtype": "bus_stop", "source_type": "node", "fetched_at_utc": "2026-03-13T14:25:28.041240+00:00", "tags": {"bench": "no", "bin": "yes", "check_date:shelter": "2024-10-06", "highway": "bus_stop", "lit": "no", "name": "Armaturvägen södra", "network": "SL", "route_ref": "827;837;842", "shelter": "no", "tactile_paving": "no"}}}
{"type": "Feature", "id": "node_3731111409", "geometry": {"type": "Point", "coordinates": [18.1133851, 59.1377068]}, "properties": {"name": "Armaturvägen södra", "category": "public_transport", "subtype": "bus_stop", "source_type": "node", "fetched_at_utc": "2026-03-13T14:25:28.041240+00:00", "tags": {"bench": "no", "bin": "no", "check_date:shelter": "2024-10-06", "highway": "bus_stop", "lit": "yes", "name": "Armaturvägen södra", "network": "SL", "route_ref": "827;842", "shelter": "no", "tactile_paving": "no"}}}
{"type": "Feature", "id": "node_3731111410", "geometry": {"type": "Point", "coordinates": [18.12356, 59.1451228]}, "properties": {"name": "Dåntorpsvägen östra", "category": "public_transport", "subtype": "bus_stop", "source_type": "node", "fetched_at_utc": "2026-03-13T14:25:28.041240+00:00", "tags": {"bench": "no", "bin": "no", "check_date:shelter": "2024-10-06", "highway": "bus_stop", "name": "Dåntorpsvägen östra", "network": "SL", "route_ref": "827;842", "shelter": "no"}}}
{"type": "Feature", "id": "node_3731111411", "geometry": {"type": "Point", "coordinates": [18.1238867, 59.1451295]}, "properties": {"name": "Dåntorpsvägen östra", "category": "public_transport", "subtype": "bus_stop", "source_type": "node", "fetched_at_utc": "2026-03-13T14:25:28.041240+00:00", "tags": {"bench": "no", "bin": "no", "check_date:shelter": "2024-10-06", "highway": "bus_stop", "name": "Dåntorpsvägen östra", "network": "SL", "route_ref": "827;837;842", "shelter": "no"}}}
{"type": "Feature", "id": "node_3731111412", "geometry": {"type": "Point", "coordinates": [18.1182786, 59.1368249]}, "properties": {"name": "Lagervägen", "category": "public_transport", "subtype": "bus_stop", "source_type": "node", "fetched_at_utc": "2026-03-13T14:25:28.041240+00:00", "tags": {"bench": "no", "bin": "no", "check_date:shelter": "2024-10-06", "highway": "bus_stop", "lit": "no", "name": "Lagervägen", "network": "SL", "route_ref": "827;837;842", "shelter": "no", "tactile_paving": "no"}}}
{"type": "Feature", "id": "node_3731111413", "geometry": {"type": "Point", "coordinates": [18.1184817, 59.1372836]}, "properties": {"name": "Lagervägen", "category": "public_transport", "subtype": "bus_stop", "source_type": "node", "fetched_at_utc": "2026-03-13T14:25:28.041240+00:00", "tags": {"bench": "no", "bin": "no", "check_date:shelter": "2024-10-06", "highway": "bus_stop", "lit": "no", "name": "Lagervägen", "network": "SL", "route_ref": "827;842", "shelter": "no", "tactile_paving": "no"}}}
{"type": "Feature", "id": "node_3731111414", "geometry": {"type": "Point", "coordinates": [18.1144083, 59.1564237]}, "properties": {"name": "Lillsjövägen södra", "category": "public_transport", "subtype": "bus_stop", "source_type": "node", "fetched_at_utc": "2026-03-13T14:25:28.041240+00:00", "tags": {"bench": "no", "highway": "bus_stop", "name": "Lillsjövägen södra", "network": "SL", "route_ref": "827;842", "shelter": "no"}}}
{"type": "Feature", "id": "node_3731111415", "geometry": {"type": "Point", "coordinates": [18.1127663, 59.1572167]}, "properties": {"name": "Lillsjövägen södra", "category": "public_transport", "subtype": "bus_stop", "source_type": "node", "fetched_at_utc": "2026-03-13T14:25:28.041240+00:00", "tags": {"bench": "no", "highway": "bus_stop", "name": "Lillsjövägen södra", "network": "SL", "route_ref": "827;842", "shelter": "no"}}}
{"type": "Feature", "id": "node_3731111416", "geometry": {"type": "Point", "coordinates": [18.1193219, 59.1514359]}, "properties": {"name": "Rudanvägen", "category": "public_transport", "subtype": "bus_stop", "source_type": "node", "fetched_at_utc": "2026-03-13T14:25:28.041240+00:00", "tags": {"bench": "no", "bin": "no", "check_date:shelter": "2024-10-06", "highway": "bus_stop", "name": "Rudanvägen", "network": "SL", "shelter": "no", "tactile_paving": "no"}}}
{"type": "Feature", "id": "node_3731111417", "geometry": {"type": "Point", "coordinates": [18.1189729, 59.1524316]}, "properties": {"name": "Rudanvägen", "category": "public_transport", "subtype": "bus_stop", "source_type": "node", "fetched_at_utc": "2026-03-13T14:25:28.041240+00:00", "tags": {"bench": "no", "bin": "yes", "highway": "bus_stop", "name": "Rudanvägen", "network": "SL", "shelter": "yes", "tactile_paving": "no"}}}
{"type": "Feature", "id": "node_3731111418", "geometry": {"type": "Point", "coordinates": [18.1200408, 59.1386184]}, "properties": {"name": "Rörvägen", "category": "public_transport", "subtype": "bus_stop", "source_type": "node", "fetched_at_utc": "2026-03-13T14:25:28.041240+00:00", "tags": {"bench": "no", "bin": "no", "check_date:shelter": "2024-10-06", "highway": "bus_stop", "lit": "no", "name": "Rörvägen", "network": "SL", "shelter": "no", "tactile_paving": "no"}}}
{"type": "Feature", "id": "node_3731111419", "geometry": {"type": "Point", "coordinates": [18.1203807, 59.1386792]}, "properties": {"name": "Rörvägen", "category": "public_transport", "subtype": "bus_stop", "source_type": "node", "fetched_at_utc": "2026-03-13T14:25:28.041240+00:00", "tags": {"bench": "no", "bin": "no", "check_date:shelter": "2024-10-06", "highway": "bus_stop", "lit": "no", "name": "Rörvägen", "network": "SL", "route_ref": "827;842", "shelter": "no", "tactile_paving": "no"}}}
{"type": "Feature", "id": "node_3731111420", "geometry": {"type": "Point", "coordinates": [18.1111966, 59.1457034]}, "properties": {"name": "Traversvägen", "category": "public_transport", "subtype": "bus_stop", "source_type": "node", "fetched_at_utc": "2026-03-13T14:25:28.041240+00:00", "tags": {"bench": "no", "highway": "bus_stop", "name": "Traversvägen", "network": "SL", "shelter": "no"}}}
{"type": "Feature", "id": "node_3731111421", "geometry": {"type": "Point", "coordinates": [18.1110326, 59.1458974]}, "properties": {"name": "Traversvägen", "category": "public_transport", "subtype": "bus_stop", "source_type": "node", "fetched_at_utc": "2026-03-13T14:25:28.041240+00:00", "tags": {"bench": "no", "highway": "bus_stop", "name": "Traversvägen", "network": "SL", "route_ref": "827;842", "shelter": "no"}}}
{"type": "Feature", "id": "node_3811647489", "geometry": {"type": "Point", "coordinates": [18.127951, 59.1412921]}, "properties": {"name": "Yarens pizzeria", "category": "food", "subtype": "restaurant", "source_type": "node", "fetched_at_utc": "2026-03-13T14:25:28.041240+00:00", "tags": {"amenity": "restaurant", "cuisine": "kebab", "name": "Yarens pizzeria"}}}
{"type": "Feature", "id": "node_3876645348", "geometry": {"type": "Point", "coordinates": [18.1696379, 59.172485]}, "properties": {"name": "Brandbergsgrillen", "category": "food", "subtype": "fast_food", "source_type": "node", "fetched_at_utc": "2026-03-13T14:25:28.041240+00:00", "tags": {"amenity": "fast_food", "name": "Brandbergsgrillen"}}}
{"type": "Feature", "id": "node_3876645349", "geometry": {"type": "Point", "coordinates": [18.1700215, 59.1722604]}, "properties": {"name": "Unnamed", "category": "food", "subtype": "fast_food", "source_type": "node", "fetched_at_utc": "2026-03-13T14:25:28.041240+00:00", "tags": {"amenity": "fast_food", "cuisine": "pizza"}}}
{"type": "Feature", "id": "node_3876645350", "geometry": {"type": "Point", "coordinates": [18.1706491, 59.1719085]}, "properties": {"name": "Pizzeria Vita Huset", "category": "food", "subtype": "fast_food", "source_type": "node", "fetched_at_utc": "2026-03-13T14:25:28.041240+00:00", "tags": {"amenity": "fast_food", "cuisine": "pizza", "name": "Pizzeria Vita Huset"}}}
{"type": "Feature", "id": "node_4241800569", "geometry": {"type": "Point", "coordinates": [18.10808, 59.1298376]}, "properties": {"name": "Björnvägen", "category": "public_transport", "subtype": "bus_stop", "source_type": "node", "fetched_at_utc": "2026-03-13T14:25:28.041240+00:00", "tags": {"bench": "yes", "bin": "yes", "highway": "bus_stop", "name": "Björnvägen", "route_ref": "844", "shelter": "yes"}}}
{"type": "Feature", "id": "node_4241800570", "geometry": {"type": "Point", "coordinates": [18.108172, 59.1299403]}, "properties": {"name": "Björnvägen", "category": "public_transport", "subtype": "bus_stop", "source_type": "node", "fetched_at_utc": "2026-03-13T14:25:28.041240+00:00", "tags": {"bench": "no", "bin": "yes", "highway": "bus_stop", "name": "Björnvägen", "route_ref": "844", "shelter": "no"}}}
{"type": "Feature", "id": "node_4243517272", "geometry": {"type": "Point", "coordinates": [18.0954684, 59.1311243]}, "properties": {"name": "Kvartärvägen", "category": "public_transport", "subtype": "bus_stop", "source_type": "node", "fetched_at_utc": "2026-03-13T14:25:28.041240+00:00", "tags": {"bench": "yes", "highway": "bus_stop", "name": "Kvartärvägen", "network": "SL", "route_ref": "844", "shelter": "yes"}}}
{"type": "Feature", "id": "node_4243517273", "geometry": {"type": "Point", "coordinates": [18.0955492, 59.1312014]}, "properties": {"name": "Kvartärvägen", "category": "public_transport", "subtype": "bus_stop", "source_type": "node", "fetched_at_utc": "2026-03-13T14:25:28.041240+00:00", "tags": {"highway": "bus_stop", "name": "Kvartärvägen", "network": "SL", "route_ref": "844", "shelter": "no"}}}
{"type": "Feature", "id": "node_4243517656", "geometry": {"type": "Point", "coordinates": [18.1058081, 59.1247041]}, "properties": {"name": "Åbyplan", "category": "public_transport", "subtype": "bus_stop", "source_type": "node", "fetched_at_utc": "2026-03-13T14:25:28.041240+00:00", "tags": {"bench": "yes", "highway": "bus_stop", "name": "Åbyplan", "network": "SL", "network:wikidata": "Q970452", "route_ref": "835;848;893", "shelter": "yes"}}}
{"type": "Feature", "id": "node_4829225874", "geometry": {"type": "Point", "coordinates": [18.1692624, 59.154735]}, "properties": {"name": "Pickfords Move Management AB", "category": "office", "subtype": "office_tag", "source_type": "node", "fetched_at_utc": "2026-03-13T14:25:28.041240+00:00", "tags": {"name": "Pickfords Move Management AB", "office": "logistics", "website": "http://www.pickfords-removals.se"}}}
{"type": "Feature", "id": "node_5920944457", "geometry": {"type": "Point", "coordinates": [18.1911654, 59.2061566]}, "properties": {"name": "Vendelsö gård", "category": "public_transport", "subtype": "bus_stop", "source_type": "node", "fetched_at_utc": "2026-03-13T14:25:28.041240+00:00", "tags": {"bench": "yes", "bin": "no", "highway": "bus_stop", "name": "Vendelsö gård", "network": "SL", "route_ref": "824", "shelter": "yes"}}}
{"type": "Feature", "id": "node_5920944458", "geometry": {"type": "Point", "coordinates": [18.1902051, 59.2011044]}, "properties": {"name": "Västra Strandvägen", "category": "public_transport", "subtype": "bus_stop", "source_type": "node", "fetched_at_utc": "2026-03-13T14:25:28.041240+00:00", "tags": {"highway": "bus_stop", "name": "Västra Strandvägen", "network": "SL", "route_ref": "824", "shelter": "no"}}}
{"type": "Feature", "id": "node_5922762438", "geometry": {"type": "Point", "coordinates": [18.1407183, 59.1638454]}, "properties": {"name": "Odenvägen", "category": "public_transport", "subtype": "bus_stop", "source_type": "node", "fetched_at_utc": "2026-03-13T14:25:28.041240+00:00", "tags": {"highway": "bus_stop", "name": "Odenvägen", "network": "SL", "route_ref": "832;981", "shelter": "yes", "tactile_paving": "no"}}}
{"type": "Feature", "id": "node_5922762439", "geometry": {"type": "Point", "coordinates": [18.145144, 59.163448]}, "properties": {"name": "Idunvägen", "category": "public_transport", "subtype": "bus_stop", "source_type": "node", "fetched_at_utc": "2026-03-13T14:25:28.041240+00:00", "tags": {"highway": "bus_stop", "name": "Idunvägen", "network": "SL", "route_ref": "832", "shelter": "no", "tactile_paving": "no"}}}
{"type": "Feature", "id": "node_5922864042", "geometry": {"type": "Point", "coordinates": [18.1027758, 59.122689]}, "properties": {"name": "Västerhaninge station", "category": "public_transport", "subtype": "bus_stop", "source_type": "node", "fetched_at_utc": "2026-03-13T14:25:28.041240+00:00", "tags": {"highway": "bus_stop", "name": "Västerhaninge station", "network": "SL", "network:wikidata": "Q970452"}}}
{"type": "Feature", "id": "node_5922864043", "geometry": {"type": "Point", "coordinates": [18.1080839, 59.1266373]}, "properties": {"name": "Åbyinfarten", "category": "public_transport", "subtype": "bus_stop", "source_type": "node", "fetched_at_utc": "2026-03-13T14:25:28.041240+00:00", "tags": {"bench": "yes", "highway": "bus_stop", "name": "Åbyinfarten", "network": "SL", "route_ref": "844", "shelter": "yes"}}}
{"type": "Feature", "id": "node_5922864044", "geometry": {"type": "Point", "coordinates": [18.1081818, 59.1265967]}, "properties": {"name": "Åbyinfarten", "category": "public_transport", "subtype": "bus_stop", "source_type": "node", "fetched_at_utc": "2026-03-13T14:25:28.041240+00:00", "tags": {"highway": "bus_stop", "name": "Åbyinfarten", "network": "SL", "route_ref": "844", "shelter": "no"}}}
{"type": "Feature", "id": "node_5922864045", "geometry": {"type": "Point", "coordinates": [18.1014562, 59.1285758]}, "properties": {"name": "Rådjursvägen", "category": "public_transport", "subtype": "bus_stop", "source_type": "node", "fetched_at_utc": "2026-03-13T14:25:28.041240+00:00", "tags": {"bench": "yes", "highway": "bus_stop", "name": "Rådjursvägen", "network": "SL", "route_ref": "844", "shelter": "yes"}}}
{"type": "Feature", "id": "node_5922864046", "geometry": {"type": "Point", "coordinates": [18.0993399, 59.1280797]},